X,Y,truck_name,repair_type,date_fixed,date_fixed1,address,activity_type,longitude,latitude,OBJECTID
-76.142089741079133,43.052366208873643,265,SNOW & ICE,2017-03-13 00:00:07.000,2017-03-13 00:00:08.000,202 CATHERINE ST & BURNET AVE                     ,    Stop Moving,-76.1420897410791,43.0523662088736,0
-76.152677643919262,43.044097706944207,283,SNOW & ICE,2017-03-13 00:00:10.000,2017-03-13 00:00:10.000,484-98 SALINA ST S & ONONDAGA ST                  ,    Start Moving,-76.1526776439193,43.0440977069442,1
-76.159828144203857,43.015808701466554,263,SNOW & ICE,2017-03-13 00:00:10.000,2017-03-13 00:00:10.000,736 NEWELL ST W & VALLEY DR                       ,,-76.1598281442039,43.0158087014666,2
-76.142111941062524,43.052035208811922,265,SNOW & ICE,2017-03-13 00:00:18.000,2017-03-13 00:00:19.000,322-24 BURNET AVE & CATHERINE ST                  ,    Start Moving,-76.1421119410625,43.0520352088119,3
-76.111647632361098,43.068500413015911,285,SNOW & ICE,2017-03-13 00:00:20.000,2017-03-13 00:00:20.000,2430-50 JAMES ST & FOREST HILL DR                 ,,-76.1116476323611,43.0685004130159,4
-76.15928144464425,43.024400103067613,267,SNOW & ICE,2017-03-13 00:00:22.000,2017-03-13 00:00:22.000,1300 SOUTH AVE & PARKWAY DR                       ,    Spreader On,-76.1592814446443,43.0244001030676,5
-76.11184063169857,43.05842041115654,208,SNOW & ICE,2017-03-13 00:00:24.000,2017-03-13 00:00:24.000,300 CALEB AVE & STAFFORD AVE                      ,,-76.1118406316986,43.0584204111565,6
-76.142074241034251,43.051812908772554,265,SNOW & ICE,2017-03-13 00:00:24.000,2017-03-13 00:00:25.000,322-24 BURNET AVE & CATHERINE ST                  ,    Stop Moving,-76.1420742410343,43.0518129087726,7
-76.154503444416534,43.04277710663083,283,SNOW & ICE,2017-03-13 00:00:31.000,2017-03-13 00:00:31.000,240-48 ONONDAGA ST W                              ,    Stop Moving,-76.1545034444165,43.0427771066308,8
-76.145894643878478,43.074085712715949,178,SNOW & ICE,2017-03-13 00:00:34.000,2017-03-13 00:00:34.000,2308 GRANT BLVD & MCCHESNEY PK                    ,,-76.1458946438785,43.0740857127159,9
-76.154578144436528,43.042718606617157,283,SNOW & ICE,2017-03-13 00:00:35.000,2017-03-13 00:00:35.000,240-48 ONONDAGA ST W                              ,    Plow Down,-76.1545781444365,43.0427186066172,10
-76.155026144557908,43.04238540653855,283,SNOW & ICE,2017-03-13 00:00:42.000,2017-03-13 00:00:42.000,316 ONONDAGA ST W                                 ,    Start Moving,-76.1550261445579,43.0423854065385,11
-76.11191173178527,43.059304911316325,208,SNOW & ICE,2017-03-13 00:00:43.000,2017-03-13 00:00:44.000,472 STAFFORD AVE                                  ,    Spreader On,-76.1119117317853,43.0593049113163,12
-76.159003647686703,43.067901411072256,216,SNOW & ICE,2017-03-13 00:00:44.000,2017-03-13 00:00:44.000,1304 SALINA ST N & COURT ST &                     ,    Start Moving,-76.1590036476867,43.0679014110723,13
-76.161534744970041,43.018766701944486,263,SNOW & ICE,2017-03-13 00:00:47.000,2017-03-13 00:00:47.000,117 GLENWOOD AVE & ELMWOOD AV                     ,,-76.16153474497,43.0187667019445,14
-76.161567944980106,43.018757101941432,263,SNOW & ICE,2017-03-13 00:00:48.000,2017-03-13 00:00:48.000,117 GLENWOOD AVE & ELMWOOD AV                     ,    Spreader On,-76.1615679449801,43.0187571019414,15
-76.111342731322623,43.05544011062814,179,SNOW & ICE,2017-03-13 00:00:48.000,2017-03-13 00:00:49.000,1820 EB I 690 SYRACUSE 13210                      ,,-76.1113427313226,43.0554401106281,16
-76.110532931079476,43.055713110709647,286,SNOW & ICE,2017-03-13 00:00:54.000,2017-03-13 00:00:55.000,1824 EB I 690 SYRACUSE 13210                      ,,-76.1105329310795,43.0557131107096,17
-76.110787231158426,43.05566311069061,210,SNOW & ICE,2017-03-13 00:00:56.000,2017-03-13 00:00:57.000,1822 EB I 690 SYRACUSE 13210                      ,,-76.1107872311584,43.0556631106906,18
-76.158726447602547,43.067981611097714,216,SNOW & ICE,2017-03-13 00:00:56.000,2017-03-13 00:00:56.000,1503 PARK ST & COURT ST & PAST                    ,    Stop Moving,-76.1587264476025,43.0679816110977,19
-76.112038631911901,43.060492711529641,208,SNOW & ICE,2017-03-13 00:01:03.000,2017-03-13 00:01:03.000,428 STAFFORD AVE                                  ,    Spreader Off,-76.1120386319119,43.0604927115296,20
-76.158449447519715,43.068079411126405,216,SNOW & ICE,2017-03-13 00:01:05.000,2017-03-13 00:01:05.000,314 COURT ST                                      ,,-76.1584494475197,43.0680794111264,21
-76.158434247516425,43.068102211131198,216,SNOW & ICE,2017-03-13 00:01:06.000,2017-03-13 00:01:06.000,314 COURT ST                                      ,    Start Moving,-76.1584342475164,43.0681022111312,22
-76.158224747467315,43.068364211187408,216,SNOW & ICE,2017-03-13 00:01:16.000,2017-03-13 00:01:16.000,1411 PARK ST & COURT ST                           ,    Stop Moving,-76.1582247474673,43.0683642111874,23
-76.112102932005314,43.061501911712575,208,SNOW & ICE,2017-03-13 00:01:18.000,2017-03-13 00:01:18.000,372 STAFFORD AVE & SUNNYCREST                     ,    Spreader On,-76.1121029320053,43.0615019117126,24
-76.111633732355571,43.068485913013795,285,SNOW & ICE,2017-03-13 00:01:20.000,2017-03-13 00:01:20.000,2430-50 JAMES ST & FOREST HILL DR                 ,,-76.1116337323556,43.0684859130138,25
-76.112117932018748,43.061620611733822,208,SNOW & ICE,2017-03-13 00:01:20.000,2017-03-13 00:01:20.000,372 STAFFORD AVE & SUNNYCREST                     ,    Spreader Off,-76.1121179320187,43.0616206117338,26
-76.158415444759754,43.029911404114422,267,SNOW & ICE,2017-03-13 00:01:21.000,2017-03-13 00:01:21.000,817 SOUTH AVE                                     ,,-76.1584154447598,43.0299114041144,27
-76.142165640999281,43.050914608603932,265,SNOW & ICE,2017-03-13 00:01:23.000,2017-03-13 00:01:24.000,627 WATER ST E & ALMOND ST &                      ,,-76.1421656409993,43.0509146086039,28
-76.157898947395324,43.06883171128591,216,SNOW & ICE,2017-03-13 00:01:27.000,2017-03-13 00:01:27.000,1500 PARK ST & COURT ST                           ,    Start Moving,-76.1578989473953,43.0688317112859,29
-76.145882443874186,43.074081112715561,178,SNOW & ICE,2017-03-13 00:01:34.000,2017-03-13 00:01:34.000,2308 GRANT BLVD & MCCHESNEY PK                    ,,-76.1458824438742,43.0740811127156,30
-76.142168140998379,43.050890908599506,265,SNOW & ICE,2017-03-13 00:01:38.000,2017-03-13 00:01:38.000,627 WATER ST E & ALMOND ST &                      ,    Spreader On,-76.1421681409984,43.0508909085995,31
-76.142220241012964,43.050858608591554,265,SNOW & ICE,2017-03-13 00:01:40.000,2017-03-13 00:01:41.000,627 WATER ST E & ALMOND ST &                      ,    Start Moving,-76.142220241013,43.0508586085916,32
-76.160756746110579,43.038128405534223,283,SNOW & ICE,2017-03-13 00:01:42.000,2017-03-13 00:01:42.000,648 ONONDAGA ST W                                 ,,-76.1607567461106,43.0381284055342,33
-76.112217932127805,43.06268521192554,208,SNOW & ICE,2017-03-13 00:01:43.000,2017-03-13 00:01:43.000,332 STAFFORD AVE                                  ,    Spreader On,-76.1122179321278,43.0626852119255,34
-76.111350731324947,43.055435710627002,179,SNOW & ICE,2017-03-13 00:01:48.000,2017-03-13 00:01:49.000,1820 EB I 690 SYRACUSE 13210                      ,,-76.1113507313249,43.055435710627,35
-76.164836445966628,43.017733401626636,263,SNOW & ICE,2017-03-13 00:01:48.000,2017-03-13 00:01:48.000,144 ELMWOOD AVE TO GREENWOOD                      ,,-76.1648364459666,43.0177334016266,36
-76.110542431082294,43.055709210708535,286,SNOW & ICE,2017-03-13 00:01:54.000,2017-03-13 00:01:55.000,1824 EB I 690 SYRACUSE 13210                      ,,-76.1105424310823,43.0557092107085,37
-76.110811431165502,43.055652710687731,210,SNOW & ICE,2017-03-13 00:01:56.000,2017-03-13 00:01:57.000,1822 EB I 690 SYRACUSE 13210                      ,,-76.1108114311655,43.0556527106877,38
-76.112314732234069,43.063725612112947,208,SNOW & ICE,2017-03-13 00:01:57.000,2017-03-13 00:01:57.000,271 STAFFORD AVE & GLENCOVE R                     ,    Spreader Off,-76.1123147322341,43.0637256121129,39
-76.165456246115937,43.017014401470433,263,SNOW & ICE,2017-03-13 00:02:06.000,2017-03-13 00:02:06.000,114 EDGEWOOD AVE                                  ,,-76.1654562461159,43.0170144014704,40
-76.111643932359868,43.068499713015939,285,SNOW & ICE,2017-03-13 00:02:20.000,2017-03-13 00:02:20.000,2430-50 JAMES ST & FOREST HILL DR                 ,,-76.1116439323599,43.0684997130159,41
-76.158938945366202,43.035978905209539,267,SNOW & ICE,2017-03-13 00:02:21.000,2017-03-13 00:02:21.000,310-12 SOUTH AVE                                  ,,-76.1589389453662,43.0359789052095,42
-76.112484232422702,43.065583112447648,208,SNOW & ICE,2017-03-13 00:02:23.000,2017-03-13 00:02:24.000,208 STAFFORD AVE                                  ,    Spreader On,-76.1124842324227,43.0655831124476,43
-76.155048446747543,43.072676612102484,216,SNOW & ICE,2017-03-13 00:02:27.000,2017-03-13 00:02:27.000,709 COURT ST                                      ,,-76.1550484467475,43.0726766121025,44
-76.145939143886437,43.073995612697658,178,SNOW & ICE,2017-03-13 00:02:34.000,2017-03-13 00:02:34.000,2308 GRANT BLVD & MCCHESNEY PK                    ,,-76.1459391438864,43.0739956126977,45
-76.164791947091985,43.033576604541253,283,SNOW & ICE,2017-03-13 00:02:37.000,2017-03-13 00:02:37.000,116 ONONDAGA AVE                                  ,    Spreader On,-76.164791947092,43.0335766045413,46
-76.145777743828219,43.073914912689112,178,SNOW & ICE,2017-03-13 00:02:40.000,2017-03-13 00:02:40.000,114 MCCHESNEY PARK DR                             ,,-76.1457777438282,43.0739149126891,47
-76.147280942660771,43.050938608410299,265,SNOW & ICE,2017-03-13 00:02:40.000,2017-03-13 00:02:41.000,327-35 WATER ST E & STATE ST S &                  ,,-76.1472809426608,43.0509386084103,48
-76.144993243501531,43.072914912535879,178,SNOW & ICE,2017-03-13 00:02:42.000,2017-03-13 00:02:42.000,2209-11 GRANT BLVD                                ,    Start Moving,-76.1449932435015,43.0729149125359,49
-76.147452942714438,43.050908908398178,265,SNOW & ICE,2017-03-13 00:02:44.000,2017-03-13 00:02:44.000,327-35 WATER ST E & STATE ST S &                  ,,-76.1474529427144,43.0509089083982,50
-76.165391447262024,43.033237404455683,283,SNOW & ICE,2017-03-13 00:02:47.000,2017-03-13 00:02:47.000,120 ONONDAGA AVE & BELLEVUE A                     ,,-76.165391447262,43.0332374044557,51
-76.147444642704301,43.05080560837952,265,SNOW & ICE,2017-03-13 00:02:48.000,2017-03-13 00:02:48.000,327-35 WATER ST E & STATE ST S &                  ,,-76.1474446427043,43.0508056083795,52
-76.165578645992341,43.014743201047985,263,SNOW & ICE,2017-03-13 00:02:48.000,2017-03-13 00:02:48.000,200 LYNCH AVE & EDGEWOOD AVE                      ,,-76.1655786459923,43.014743201048,53
-76.111344231321695,43.055420110624418,179,SNOW & ICE,2017-03-13 00:02:48.000,2017-03-13 00:02:49.000,1820 EB I 690 SYRACUSE 13210                      ,,-76.1113442313217,43.0554201106244,54
-76.165577447321098,43.03322020444535,283,SNOW & ICE,2017-03-13 00:02:49.000,2017-03-13 00:02:49.000,806-08 BELLEVUE AVE                               ,    Spreader Off,-76.1655774473211,43.0332202044453,55
-76.145876243867122,43.07401091270291,178,SNOW & ICE,2017-03-13 00:02:54.000,2017-03-13 00:02:54.000,2308 GRANT BLVD & MCCHESNEY PK                    ,    Stop Moving,-76.1458762438671,43.0740109127029,56
-76.110539731081857,43.055715610709811,286,SNOW & ICE,2017-03-13 00:02:54.000,2017-03-13 00:02:55.000,1824 EB I 690 SYRACUSE 13210                      ,,-76.1105397310819,43.0557156107098,57
-76.112714732670298,43.067983612879736,208,SNOW & ICE,2017-03-13 00:02:54.000,2017-03-13 00:02:55.000,2378-90 JAMES ST & STAFFORD AVE                   ,    Stop Moving,-76.1127147326703,43.0679836128797,58
-76.112714732670554,43.067987712880452,208,SNOW & ICE,2017-03-13 00:02:55.000,2017-03-13 00:02:55.000,2378-90 JAMES ST & STAFFORD AVE                   ,    Spreader Off,-76.1127147326706,43.0679877128805,59
-76.110795931159757,43.055642610686505,210,SNOW & ICE,2017-03-13 00:02:56.000,2017-03-13 00:02:57.000,1822 EB I 690 SYRACUSE 13210                      ,,-76.1107959311598,43.0556426106865,60
-76.166985147773374,43.033159604379641,283,SNOW & ICE,2017-03-13 00:03:00.000,2017-03-13 00:03:00.000,900 BELLEVUE AVE & MALCOLM ST                     ,    Spreader On,-76.1669851477734,43.0331596043796,61
-76.166564746315785,43.014793601019072,263,SNOW & ICE,2017-03-13 00:03:01.000,2017-03-13 00:03:01.000,220 LYNCH AVE & FLETCHER AVE                      ,,-76.1665647463158,43.0147936010191,62
-76.112627632655474,43.068170612917442,208,SNOW & ICE,2017-03-13 00:03:05.000,2017-03-13 00:03:06.000,2400-10 JAMES ST & STAFFORD AVE                   ,,-76.1126276326555,43.0681706129174,63
-76.112490732610752,43.068166912922045,208,SNOW & ICE,2017-03-13 00:03:09.000,2017-03-13 00:03:09.000,2400-10 JAMES ST & STAFFORD AVE                   ,  Start Moving  Spreader On,-76.1124907326108,43.068166912922,64
-76.112314632551715,43.068140612924019,208,SNOW & ICE,2017-03-13 00:03:13.000,2017-03-13 00:03:13.000,2400-10 JAMES ST & STAFFORD AVE                   ,    Spreader Off,-76.1123146325517,43.068140612924,65
-76.112122232492311,43.068182912939264,208,SNOW & ICE,2017-03-13 00:03:19.000,2017-03-13 00:03:20.000,2400-10 JAMES ST & STAFFORD AVE                   ,    Stop Moving,-76.1121222324923,43.0681829129393,66
-76.111650432362808,43.0685112130178,285,SNOW & ICE,2017-03-13 00:03:20.000,2017-03-13 00:03:20.000,2501-13 JAMES ST & MARLBOROUGH RD                 ,,-76.1116504323628,43.0685112130178,67
-76.15770344528238,43.04038320606692,267,SNOW & ICE,2017-03-13 00:03:21.000,2017-03-13 00:03:21.000,400-12 ONONDAGA ST W                              ,,-76.1577034452824,43.0403832060669,68
-76.166588446408156,43.015971701234832,263,SNOW & ICE,2017-03-13 00:03:23.000,2017-03-13 00:03:23.000,300 HUTCHINSON AVE & FLETCHER                     ,,-76.1665884464082,43.0159717012348,69
-76.150716645595722,43.076198612917104,216,SNOW & ICE,2017-03-13 00:03:27.000,2017-03-13 00:03:27.000,1131 COURT ST & WILLUMAE DR                       ,,-76.1507166455957,43.0761986129171,70
-76.150534145538415,43.076224712928955,216,SNOW & ICE,2017-03-13 00:03:30.000,2017-03-13 00:03:30.000,1131 COURT ST & WILLUMAE DR                       ,    Spreader On,-76.1505341455384,43.076224712929,71
-76.142760241185343,43.050819408563441,265,SNOW & ICE,2017-03-13 00:03:47.000,2017-03-13 00:03:48.000,627 WATER ST E & ALMOND ST &                      ,,-76.1427602411853,43.0508194085634,72
-76.111347131323328,43.055429610626021,179,SNOW & ICE,2017-03-13 00:03:48.000,2017-03-13 00:03:49.000,1820 EB I 690 SYRACUSE 13210                      ,,-76.1113471313233,43.055429610626,73
-76.111555732328583,43.068463113012648,285,SNOW & ICE,2017-03-13 00:03:51.000,2017-03-13 00:03:51.000,2430-50 JAMES ST & FOREST HILL DR                 ,    Start Moving,-76.1115557323286,43.0684631130126,74
-76.142424941070303,43.050732608560452,265,SNOW & ICE,2017-03-13 00:03:52.000,2017-03-13 00:03:53.000,627 WATER ST E & ALMOND ST &                      ,,-76.1424249410703,43.0507326085605,75
-76.145859143866872,43.074084712717145,178,SNOW & ICE,2017-03-13 00:03:54.000,2017-03-13 00:03:54.000,2308 GRANT BLVD & MCCHESNEY PK                    ,,-76.1458591438669,43.0740847127171,76
-76.110545631084619,43.055727410711782,286,SNOW & ICE,2017-03-13 00:03:54.000,2017-03-13 00:03:55.000,1824 EB I 690 SYRACUSE 13210                      ,,-76.1105456310846,43.0557274107118,77
-76.110794731159856,43.055649610687851,210,SNOW & ICE,2017-03-13 00:03:56.000,2017-03-13 00:03:57.000,1822 EB I 690 SYRACUSE 13210                      ,,-76.1107947311599,43.0556496106879,78
-76.14905064498214,43.075187112795888,216,SNOW & ICE,2017-03-13 00:03:58.000,2017-03-13 00:03:58.000,117 MICHAELS AVE & KIRKPATRIC                     ,    Spreader Off,-76.1490506449821,43.0751871127959,79
-76.111347132264342,43.068510913029485,285,SNOW & ICE,2017-03-13 00:04:00.000,2017-03-13 00:04:01.000,2500 JAMES ST & FOREST HILL DR                    ,,-76.1113471322643,43.0685109130295,80
-76.175056750369421,43.032851704010369,283,SNOW & ICE,2017-03-13 00:04:00.000,2017-03-13 00:04:00.000,1152-54 BELLEVUE AVE                              ,,-76.1750567503694,43.0328517040104,81
-76.175101150384435,43.032860404010229,283,SNOW & ICE,2017-03-13 00:04:01.000,2017-03-13 00:04:01.000,1152-54 BELLEVUE AVE                              ,    Spreader Off,-76.1751011503844,43.0328604040102,82
-76.175175450417441,43.032984204030114,283,SNOW & ICE,2017-03-13 00:04:04.000,2017-03-13 00:04:04.000,1428 GEDDES ST S                                  ,,-76.1751754504174,43.0329842040301,83
-76.111405632292318,43.06863561305012,285,SNOW & ICE,2017-03-13 00:04:05.000,2017-03-13 00:04:05.000,2501-13 JAMES ST & MARLBOROUGH RD                 ,,-76.1114056322923,43.0686356130501,84
-76.149495645082581,43.074577712666745,216,SNOW & ICE,2017-03-13 00:04:10.000,2017-03-13 00:04:10.000,120 MICHAELS AVE & KIRKPATRIC                     ,    Spreader On,-76.1494956450826,43.0745777126667,85
-76.112096432493331,43.068313212964163,208,SNOW & ICE,2017-03-13 00:04:19.000,2017-03-13 00:04:19.000,2400-10 JAMES ST & STAFFORD AVE                   ,,-76.1120964324933,43.0683132129642,86
-76.149810945152623,43.074129112572173,216,SNOW & ICE,2017-03-13 00:04:19.000,2017-03-13 00:04:19.000,2421-23 GRANT BLVD & KIRKPATRICK                  ,    Spreader Off,-76.1498109451526,43.0741291125722,87
-76.151683143499469,43.042748206734721,267,SNOW & ICE,2017-03-13 00:04:21.000,2017-03-13 00:04:21.000,580-84 SALINA ST S & ADAMS ST W                   ,,-76.1516831434995,43.0427482067347,88
-76.163238445396729,43.017015401556471,263,SNOW & ICE,2017-03-13 00:04:23.000,2017-03-13 00:04:23.000,106 FAIRFIELD AVE                                 ,,-76.1632384453967,43.0170154015565,89
-76.162736945236446,43.017048901582065,263,SNOW & ICE,2017-03-13 00:04:32.000,2017-03-13 00:04:32.000,2056 SOUTH AVE & FAIRFIELD AVE                    ,    Stop Moving,-76.1627369452364,43.0170489015821,90
-76.174150950239579,43.035128904464031,283,SNOW & ICE,2017-03-13 00:04:32.000,2017-03-13 00:04:32.000,1215 GEDDES ST S & ELLIOTT ST                     ,,-76.1741509502396,43.035128904464,91
-76.162652245200235,43.016927401562995,263,SNOW & ICE,2017-03-13 00:04:42.000,2017-03-13 00:04:42.000,2056 SOUTH AVE & FAIRFIELD AVE                    ,,-76.1626522452002,43.016927401563,92
-76.14226974079962,43.047671608003974,265,SNOW & ICE,2017-03-13 00:04:43.000,2017-03-13 00:04:44.000,701-05 GENESEE ST E & ALMOND ST                   ,    Stop Moving,-76.1422697407996,43.047671608004,93
-76.172891749815506,43.034911904472949,283,SNOW & ICE,2017-03-13 00:04:46.000,2017-03-13 00:04:46.000,306 ELLIOTT ST                                    ,    Spreader On,-76.1728917498155,43.0349119044729,94
-76.11134513132356,43.055441910628367,179,SNOW & ICE,2017-03-13 00:04:48.000,2017-03-13 00:04:49.000,1820 EB I 690 SYRACUSE 13210                      ,,-76.1113451313236,43.0554419106284,95
-76.152484246050932,43.074556112546993,216,SNOW & ICE,2017-03-13 00:04:49.000,2017-03-13 00:04:49.000,2619 GRANT BLVD                                   ,,-76.1524842460509,43.074556112547,96
-76.162907645265378,43.016681201507836,263,SNOW & ICE,2017-03-13 00:04:51.000,2017-03-13 00:04:51.000,2108 SOUTH AVE & FAIRFIELD AVE                    ,    Start Moving,-76.1629076452654,43.0166812015078,97
-76.145857743865932,43.07407761271589,178,SNOW & ICE,2017-03-13 00:04:54.000,2017-03-13 00:04:54.000,2308 GRANT BLVD & MCCHESNEY PK                    ,,-76.1458577438659,43.0740776127159,98
-76.110549431084138,43.055703710707277,286,SNOW & ICE,2017-03-13 00:04:54.000,2017-03-13 00:04:55.000,1824 EB I 690 SYRACUSE 13210                      ,,-76.1105494310841,43.0557037107073,99
-76.172485149666727,43.034677204445551,283,SNOW & ICE,2017-03-13 00:04:56.000,2017-03-13 00:04:56.000,300 BRADLEY ST & ELLIOTT ST                       ,,-76.1724851496667,43.0346772044456,100
-76.110814131166251,43.055650710687296,210,SNOW & ICE,2017-03-13 00:04:56.000,2017-03-13 00:04:57.000,1822 EB I 690 SYRACUSE 13210                      ,,-76.1108141311663,43.0556507106873,101
-76.153331146340037,43.074753412550386,216,SNOW & ICE,2017-03-13 00:05:01.000,2017-03-13 00:05:01.000,824 COURT ST & GRANT BLVD                         ,    Stop Moving,-76.15333114634,43.0747534125504,102
-76.142322940751697,43.046765607835418,265,SNOW & ICE,2017-03-13 00:05:01.000,2017-03-13 00:05:02.000,70 E ADAMS ST TO NB I 81 RAMP SYRACUSE 13210      ,    Start Moving,-76.1423229407517,43.0467656078354,103
-76.118808234575084,43.066969912457729,285,SNOW & ICE,2017-03-13 00:05:04.000,2017-03-13 00:05:04.000,2001 JAMES ST & PECK AVE                          ,,-76.1188082345751,43.0669699124577,104
-76.153380646365704,43.074886912572971,216,SNOW & ICE,2017-03-13 00:05:07.000,2017-03-13 00:05:07.000,915 COURT ST                                      ,,-76.1533806463657,43.074886912573,105
-76.153098146292621,43.075145112631347,216,SNOW & ICE,2017-03-13 00:05:13.000,2017-03-13 00:05:13.000,1001 COURT ST & BRACE ST                          ,    Start Moving,-76.1530981462926,43.0751451126313,106
-76.143074940708161,43.042769707071926,267,SNOW & ICE,2017-03-13 00:05:14.000,2017-03-13 00:05:14.000,629 E ADAMS ST SYRACUSE 13202                     ,    Spreader Off,-76.1430749407082,43.0427697070719,107
-76.142917940657128,43.04276860707779,267,SNOW & ICE,2017-03-13 00:05:17.000,2017-03-13 00:05:18.000,637 E ADAMS ST SYRACUSE 13202                     ,    Stop Moving,-76.1429179406571,43.0427686070778,108
-76.112073132483701,43.06828441295977,208,SNOW & ICE,2017-03-13 00:05:19.000,2017-03-13 00:05:19.000,2400-10 JAMES ST & STAFFORD AVE                   ,,-76.1120731324837,43.0682844129598,109
-76.172780649639876,43.032973204120879,283,SNOW & ICE,2017-03-13 00:05:27.000,2017-03-13 00:05:27.000,1100 BELLEVUE AVE & BRADLEY ST                    ,    Spreader Off,-76.1727806496399,43.0329732041209,110
-76.17402295003761,43.032900704059429,283,SNOW & ICE,2017-03-13 00:05:40.000,2017-03-13 00:05:40.000,1132 BELLEVUE AVE                                 ,    Spreader On,-76.1740229500376,43.0329007040594,111
-76.123306435877836,43.064786711882618,285,SNOW & ICE,2017-03-13 00:05:41.000,2017-03-13 00:05:41.000,100 HAMPTON RD & JAMES ST                         ,    Plow Down,-76.1233064358778,43.0647867118826,112
-76.17413895006581,43.032769904030879,283,SNOW & ICE,2017-03-13 00:05:45.000,2017-03-13 00:05:45.000,1134-36 BELLEVUE AVE                              ,,-76.1741389500658,43.0327699040309,113
-76.111340731322073,43.055441110628387,179,SNOW & ICE,2017-03-13 00:05:48.000,2017-03-13 00:05:49.000,1820 EB I 690 SYRACUSE 13210                      ,,-76.1113407313221,43.0554411106284,114
-76.16783874681154,43.015942101180983,263,SNOW & ICE,2017-03-13 00:05:51.000,2017-03-13 00:05:51.000,310 HUTCHINSON AVE                                ,,-76.1678387468115,43.015942101181,115
-76.145841643860848,43.074079612716865,178,SNOW & ICE,2017-03-13 00:05:54.000,2017-03-13 00:05:54.000,2308 GRANT BLVD & MCCHESNEY PK                    ,,-76.1458416438608,43.0740796127169,116
-76.110530431076754,43.055686110704777,286,SNOW & ICE,2017-03-13 00:05:54.000,2017-03-13 00:05:55.000,1824 EB I 690 SYRACUSE 13210                      ,,-76.1105304310768,43.0556861107048,117
-76.174083950006889,43.032199203928116,283,SNOW & ICE,2017-03-13 00:05:55.000,2017-03-13 00:05:55.000,121 STINARD AVE                                   ,    Spreader Off,-76.1740839500069,43.0321992039281,118
-76.110800631163229,43.055669710691284,210,SNOW & ICE,2017-03-13 00:05:56.000,2017-03-13 00:05:57.000,1822 EB I 690 SYRACUSE 13210                      ,,-76.1108006311632,43.0556697106913,119
-76.142462140384637,43.041036206777008,265,SNOW & ICE,2017-03-13 00:06:01.000,2017-03-13 00:06:02.000,8451 NB I 81 SYRACUSE 13210                       ,,-76.1424621403846,43.041036206777,120
-76.142808640625859,43.042826907092724,267,SNOW & ICE,2017-03-13 00:06:01.000,2017-03-13 00:06:01.000,645 E ADAMS ST SYRACUSE 13202                     ,    Start Moving,-76.1428086406259,43.0428269070927,121
-76.148615144970989,43.076992713144321,216,SNOW & ICE,2017-03-13 00:06:02.000,2017-03-13 00:06:02.000,1250 COURT ST & HOOD AVE                          ,,-76.148615144971,43.0769927131443,122
-76.148577944957751,43.076976413142759,216,SNOW & ICE,2017-03-13 00:06:03.000,2017-03-13 00:06:03.000,1250 COURT ST & HOOD AVE                          ,    Spreader On,-76.1485779449578,43.0769764131428,123
-76.174191150021898,43.03192440387344,283,SNOW & ICE,2017-03-13 00:06:04.000,2017-03-13 00:06:04.000,124-26 STINARD AVE & GRANT AVE                    ,,-76.1741911500219,43.0319244038734,124
-76.126480436794395,43.063209611470064,285,SNOW & ICE,2017-03-13 00:06:08.000,2017-03-13 00:06:08.000,1507 JAMES ST & DURSTON AVE                       ,    Plow Up,-76.1264804367944,43.0632096114701,125
-76.168984947168695,43.01573910109925,263,SNOW & ICE,2017-03-13 00:06:08.000,2017-03-13 00:06:08.000,323 HUTCHINSON AVE & CLAYTON                      ,,-76.1689849471687,43.0157391010992,126
-76.174548150135763,43.031897903854748,283,SNOW & ICE,2017-03-13 00:06:09.000,2017-03-13 00:06:09.000,210 GRANT AVE                                     ,    Spreader On,-76.1745481501358,43.0318979038547,127
-76.14242874050845,43.042907907122313,267,SNOW & ICE,2017-03-13 00:06:10.000,2017-03-13 00:06:10.000,890 ALMOND ST SYRACUSE 13210                      ,    Spreader On,-76.1424287405084,43.0429079071223,128
-76.112073132485008,43.068302912963169,208,SNOW & ICE,2017-03-13 00:06:19.000,2017-03-13 00:06:19.000,2400-10 JAMES ST & STAFFORD AVE                   ,,-76.112073132485,43.0683029129632,129
-76.175356450403214,43.031971103836881,283,SNOW & ICE,2017-03-13 00:06:21.000,2017-03-13 00:06:21.000,1509 GEDDES ST S & GRANT AVE                      ,    Spreader Off,-76.1753564504032,43.0319711038369,130
-76.142310940556712,43.044109607347728,267,SNOW & ICE,2017-03-13 00:06:25.000,2017-03-13 00:06:25.000,807 ALMOND ST                                     ,    Spreader Off,-76.1423109405567,43.0441096073477,131
-76.14230964055713,43.044121607350014,267,SNOW & ICE,2017-03-13 00:06:26.000,2017-03-13 00:06:26.000,807 ALMOND ST                                     ,    Stop Moving,-76.1423096405571,43.04412160735,132
-76.175114650386689,43.032830604004239,283,SNOW & ICE,2017-03-13 00:06:36.000,2017-03-13 00:06:36.000,1152-54 BELLEVUE AVE                              ,,-76.1751146503867,43.0328306040042,133
-76.142281440587752,43.044674707452749,267,SNOW & ICE,2017-03-13 00:06:37.000,2017-03-13 00:06:37.000,8 E ADAMS ST TO NB I 81 RAMP SYRACUSE 13210       ,  Start Moving  Spreader On,-76.1422814405878,43.0446747074527,134
-76.16911444712737,43.01458020088112,263,SNOW & ICE,2017-03-13 00:06:39.000,2017-03-13 00:06:39.000,110 CLAYTON AVE & LYNCH AVE                       ,,-76.1691144471274,43.0145802008811,135
-76.130477137950678,43.061254410956195,285,SNOW & ICE,2017-03-13 00:06:40.000,2017-03-13 00:06:40.000,1111-29 JAMES ST                                  ,    Plow Down,-76.1304771379507,43.0612544109562,136
-76.1415177398233,43.037492206162149,265,SNOW & ICE,2017-03-13 00:06:48.000,2017-03-13 00:06:48.000,500 RENWICK AVE                                   ,    Stop Moving,-76.1415177398233,43.0374922061621,137
-76.11135163132451,43.055425710625151,179,SNOW & ICE,2017-03-13 00:06:48.000,2017-03-13 00:06:49.000,1820 EB I 690 SYRACUSE 13210                      ,,-76.1113516313245,43.0554257106252,138
-76.145841243859692,43.074065112714209,178,SNOW & ICE,2017-03-13 00:06:54.000,2017-03-13 00:06:54.000,2308 GRANT BLVD & MCCHESNEY PK                    ,,-76.1458412438597,43.0740651127142,139
-76.110531631077478,43.05569111070561,286,SNOW & ICE,2017-03-13 00:06:54.000,2017-03-13 00:06:55.000,1824 EB I 690 SYRACUSE 13210                      ,,-76.1105316310775,43.0556911107056,140
-76.141515239829673,43.037592406180657,265,SNOW & ICE,2017-03-13 00:06:55.000,2017-03-13 00:06:56.000,500 RENWICK AVE                                   ,    Spreader Off,-76.1415152398297,43.0375924061807,141
-76.110781431157193,43.055672610692568,210,SNOW & ICE,2017-03-13 00:06:56.000,2017-03-13 00:06:57.000,1822 EB I 690 SYRACUSE 13210                      ,,-76.1107814311572,43.0556726106926,142
-76.170410147531641,43.01435860079021,263,SNOW & ICE,2017-03-13 00:07:02.000,2017-03-13 00:07:02.000,425 MITCHELL AVE & LYNCH AVE                      ,,-76.1704101475316,43.0143586007902,143
-76.143812143182785,43.073810212746018,216,SNOW & ICE,2017-03-13 00:07:03.000,2017-03-13 00:07:03.000,140 HOOD AVE                                      ,,-76.1438121431828,43.073810212746,144
-76.141496139820148,43.037546106172897,265,SNOW & ICE,2017-03-13 00:07:04.000,2017-03-13 00:07:05.000,500 RENWICK AVE                                   ,,-76.1414961398201,43.0375461061729,145
-76.141553139839488,43.037557606172776,265,SNOW & ICE,2017-03-13 00:07:06.000,2017-03-13 00:07:06.000,500 RENWICK AVE                                   ,    Spreader On,-76.1415531398395,43.0375576061728,146
-76.133776738904757,43.059632910530546,285,SNOW & ICE,2017-03-13 00:07:06.000,2017-03-13 00:07:06.000,1019 JAMES ST                                     ,    Plow Up,-76.1337767389048,43.0596329105305,147
-76.142059240023158,43.037828606203007,265,SNOW & ICE,2017-03-13 00:07:13.000,2017-03-13 00:07:14.000,516 BURT ST                                       ,    Start Moving,-76.1420592400232,43.037828606203,148
-76.172340949500565,43.033019204146385,283,SNOW & ICE,2017-03-13 00:07:15.000,2017-03-13 00:07:15.000,1060 BELLEVUE AVE                                 ,    Spreader On,-76.1723409495006,43.0330192041464,149
-76.112080432487673,43.068307112963701,208,SNOW & ICE,2017-03-13 00:07:19.000,2017-03-13 00:07:19.000,2400-10 JAMES ST & STAFFORD AVE                   ,,-76.1120804324877,43.0683071129637,150
-76.172188249443508,43.032914404133024,283,SNOW & ICE,2017-03-13 00:07:20.000,2017-03-13 00:07:20.000,1060 BELLEVUE AVE                                 ,,-76.1721882494435,43.032914404133,151
-76.142495942719208,43.073304912704238,216,SNOW & ICE,2017-03-13 00:07:22.000,2017-03-13 00:07:22.000,1601 BUTTERNUT ST & HOOD AVE                      ,,-76.1424959427192,43.0733049127042,152
-76.142474442713791,43.073326712709047,216,SNOW & ICE,2017-03-13 00:07:23.000,2017-03-13 00:07:23.000,1601 BUTTERNUT ST & HOOD AVE                      ,    Spreader Off,-76.1424744427138,43.073326712709,153
-76.110764931152431,43.055680410694634,210,SNOW & ICE,2017-03-13 00:07:31.000,2017-03-13 00:07:32.000,1822 EB I 690 SYRACUSE 13210                      ,    Ignition Off,-76.1107649311524,43.0556804106946,154
-76.110763931151979,43.055678910694397,210,SNOW & ICE,2017-03-13 00:07:35.000,2017-03-13 00:07:36.000,1822 EB I 690 SYRACUSE 13210                      ,    Plow Up,-76.110763931152,43.0556789106944,155
-76.110764131151981,43.055678110694259,210,SNOW & ICE,2017-03-13 00:07:36.000,2017-03-13 00:07:37.000,1822 EB I 690 SYRACUSE 13210                      ,    Ignition On,-76.110764131152,43.0556781106943,156
-76.142016240939412,43.050756608580684,267,SNOW & ICE,2017-03-13 00:07:37.000,2017-03-13 00:07:37.000,701 WATER ST E & ALMOND ST &                      ,,-76.1420162409394,43.0507566085807,157
-76.142554142806304,43.074251212875751,216,SNOW & ICE,2017-03-13 00:07:44.000,2017-03-13 00:07:44.000,102 ROSS PK & BUTTERNUT ST                        ,    Spreader On,-76.1425541428063,43.0742512128758,158
-76.111348131323339,43.055425410625219,179,SNOW & ICE,2017-03-13 00:07:48.000,2017-03-13 00:07:49.000,1820 EB I 690 SYRACUSE 13210                      ,,-76.1113481313233,43.0554254106252,159
-76.145864143868096,43.074079212715937,178,SNOW & ICE,2017-03-13 00:07:54.000,2017-03-13 00:07:54.000,2308 GRANT BLVD & MCCHESNEY PK                    ,,-76.1458641438681,43.0740792127159,160
-76.110556131086312,43.055703710707014,286,SNOW & ICE,2017-03-13 00:07:54.000,2017-03-13 00:07:55.000,1824 EB I 690 SYRACUSE 13210                      ,,-76.1105561310863,43.055703710707,161
-76.169648647002546,43.01043460009798,263,SNOW & ICE,2017-03-13 00:07:57.000,2017-03-13 00:07:57.000,2598 SOUTH AVE TO MITCHELL AVE                    ,,-76.1696486470025,43.010434600098,162
-76.171982249183458,43.03023070364771,283,SNOW & ICE,2017-03-13 00:08:01.000,2017-03-13 00:08:01.000,428 STOLP AVE & ROBERTS AVE                       ,    Plow Up,-76.1719822491835,43.0302307036477,163
-76.141238141062487,43.055973409569347,285,SNOW & ICE,2017-03-13 00:08:06.000,2017-03-13 00:08:06.000,753 JAMES ST & LODI ST TO WIL                     ,,-76.1412381410625,43.0559734095693,164
-76.172408149318713,43.030190603623808,283,SNOW & ICE,2017-03-13 00:08:07.000,2017-03-13 00:08:07.000,509-11 STOLP AVE                                  ,    Spreader Off,-76.1724081493187,43.0301906036238,165
-76.142323740492444,43.043159107172563,265,SNOW & ICE,2017-03-13 00:08:13.000,2017-03-13 00:08:14.000,807 ALMOND ST                                     ,,-76.1423237404924,43.0431591071726,166
-76.112068132483373,43.068302412963284,208,SNOW & ICE,2017-03-13 00:08:19.000,2017-03-13 00:08:19.000,2400-10 JAMES ST & STAFFORD AVE                   ,,-76.1120681324834,43.0683024129633,167
-76.166660646165525,43.01227110055143,263,SNOW & ICE,2017-03-13 00:08:33.000,2017-03-13 00:08:33.000,2502-04 SOUTH AVE & PRINCETON AVE                 ,,-76.1666606461655,43.0122711005514,168
-76.110781131156998,43.055670910692278,210,SNOW & ICE,2017-03-13 00:08:36.000,2017-03-13 00:08:37.000,1822 EB I 690 SYRACUSE 13210                      ,,-76.110781131157,43.0556709106923,169
-76.134073238353238,43.050633608865532,267,SNOW & ICE,2017-03-13 00:08:37.000,2017-03-13 00:08:37.000,101 UNIVERSITY AVE & ERIE BLV                     ,,-76.1340732383532,43.0506336088655,170
-76.17493625013185,43.030094603508239,283,SNOW & ICE,2017-03-13 00:08:41.000,2017-03-13 00:08:41.000,1709 GEDDES ST S & STOLP AVE                      ,    Spreader On,-76.1749362501319,43.0300946035082,171
-76.145927944055202,43.076387213137259,216,SNOW & ICE,2017-03-13 00:08:43.000,2017-03-13 00:08:43.000,244 ROSS PK                                       ,    Stop Moving,-76.1459279440552,43.0763872131373,172
-76.14576444383971,43.07413391272982,178,SNOW & ICE,2017-03-13 00:08:44.000,2017-03-13 00:08:44.000,2308 GRANT BLVD & MCCHESNEY PK                    ,    Start Moving,-76.1457644438397,43.0741339127298,173
-76.111346931324348,43.055444910628864,179,SNOW & ICE,2017-03-13 00:08:48.000,2017-03-13 00:08:49.000,1820 EB I 690 SYRACUSE 13210                      ,,-76.1113469313243,43.0554449106289,174
-76.142260740734812,43.046811607846294,265,SNOW & ICE,2017-03-13 00:08:50.000,2017-03-13 00:08:51.000,72 E ADAMS ST TO NB I 81 RAMP SYRACUSE 13210      ,    Spreader Off,-76.1422607407348,43.0468116078463,175
-76.110572131092354,43.055715610708575,286,SNOW & ICE,2017-03-13 00:08:54.000,2017-03-13 00:08:55.000,1824 EB I 690 SYRACUSE 13210                      ,,-76.1105721310924,43.0557156107086,176
-76.146322744202365,43.076650613170337,216,SNOW & ICE,2017-03-13 00:08:54.000,2017-03-13 00:08:54.000,256 ROSS PK                                       ,    Start Moving,-76.1463227442024,43.0766506131703,177
-76.176473450625906,43.030031403437057,283,SNOW & ICE,2017-03-13 00:08:57.000,2017-03-13 00:08:57.000,712 STOLP AVE                                     ,    Spreader Off,-76.1764734506259,43.0300314034371,178
-76.145714943844041,43.074417112783763,178,SNOW & ICE,2017-03-13 00:08:57.000,2017-03-13 00:08:57.000,199 HOOD AVE                                      ,    Stop Moving,-76.145714943844,43.0744171127838,179
-76.110908431194233,43.055614210676929,210,SNOW & ICE,2017-03-13 00:08:57.000,2017-03-13 00:08:58.000,1822 EB I 690 SYRACUSE 13210                      ,    Start Moving,-76.1109084311942,43.0556142106769,180
-76.165421145881567,43.013912900901396,263,SNOW & ICE,2017-03-13 00:08:59.000,2017-03-13 00:08:59.000,108 ARMSTRONG PL & SOUTH AVE                      ,,-76.1654211458816,43.0139129009014,181
-76.142287440792089,43.047486907969322,265,SNOW & ICE,2017-03-13 00:09:01.000,2017-03-13 00:09:02.000,701-05 GENESEE ST E & ALMOND ST                   ,    Spreader On,-76.1422874407921,43.0474869079693,182
-76.14824794309132,43.052560908670941,285,SNOW & ICE,2017-03-13 00:09:06.000,2017-03-13 00:09:06.000,407 JAMES ST & STATE ST N                         ,,-76.1482479430913,43.0525609086709,183
-76.14827564309924,43.052545908667128,285,SNOW & ICE,2017-03-13 00:09:07.000,2017-03-13 00:09:08.000,407 JAMES ST & STATE ST N                         ,    Stop Moving,-76.1482756430992,43.0525459086671,184
-76.146066443887975,43.073444112591439,178,SNOW & ICE,2017-03-13 00:09:14.000,2017-03-13 00:09:14.000,2238 GRANT BLVD & MCCHESNEY PK                    ,    Start Moving,-76.146066443888,43.0734441125914,185
-76.146078643887719,43.073385712580254,178,SNOW & ICE,2017-03-13 00:09:16.000,2017-03-13 00:09:16.000,2238 GRANT BLVD & MCCHESNEY PK                    ,    Stop Moving,-76.1460786438877,43.0733857125803,186
-76.14219974082863,43.048389908138667,265,SNOW & ICE,2017-03-13 00:09:16.000,2017-03-13 00:09:17.000,701-03 FAYETTE ST E & ALMOND ST                   ,    Stop Moving,-76.1421997408286,43.0483899081387,187
-76.148850143262635,43.052226208586134,285,SNOW & ICE,2017-03-13 00:09:18.000,2017-03-13 00:09:18.000,323-35 JAMES ST & STATE ST N                      ,    Start Moving,-76.1488501432626,43.0522262085861,188
-76.147671444709133,43.077608613293982,216,SNOW & ICE,2017-03-13 00:09:19.000,2017-03-13 00:09:19.000,1345 COURT ST                                     ,    Spreader Off,-76.1476714447091,43.077608613294,189
-76.11209523249569,43.068351412971239,208,SNOW & ICE,2017-03-13 00:09:19.000,2017-03-13 00:09:19.000,2400-10 JAMES ST & STAFFORD AVE                   ,,-76.1120952324957,43.0683514129712,190
-76.147805244750714,43.077582913284076,216,SNOW & ICE,2017-03-13 00:09:22.000,2017-03-13 00:09:22.000,1345 COURT ST                                     ,    Stop Moving,-76.1478052447507,43.0775829132841,191
-76.142185940865119,43.048959408243881,265,SNOW & ICE,2017-03-13 00:09:26.000,2017-03-13 00:09:27.000,622 WASHINGTON ST E & ALMOND                      ,    Start Moving,-76.1421859408651,43.0489594082439,192
-76.146573744008876,43.07283721246035,178,SNOW & ICE,2017-03-13 00:09:27.000,2017-03-13 00:09:27.000,2303 GRANT BLVD & POND ST                         ,    Start Moving,-76.1465737440089,43.0728372124603,193
-76.147750744734779,43.077607713290739,216,SNOW & ICE,2017-03-13 00:09:29.000,2017-03-13 00:09:29.000,1345 COURT ST                                     ,,-76.1477507447348,43.0776077132907,194
-76.112461231658529,43.05506321051562,210,SNOW & ICE,2017-03-13 00:09:31.000,2017-03-13 00:09:31.000,1216 CANAL ST REAR                                ,,-76.1124612316585,43.0550632105156,195
-76.149710143515875,43.051868208487051,285,SNOW & ICE,2017-03-13 00:09:32.000,2017-03-13 00:09:32.000,225 JAMES ST                                      ,    Stop Moving,-76.1497101435159,43.0518682084871,196
-76.112350631620345,43.055030910513977,210,SNOW & ICE,2017-03-13 00:09:34.000,2017-03-13 00:09:35.000,1216 CANAL ST REAR                                ,    Stop Moving,-76.1123506316203,43.055030910514,197
-76.124187235058642,43.049429109026704,267,SNOW & ICE,2017-03-13 00:09:37.000,2017-03-13 00:09:37.000,1512 ERIE BLVD E                                  ,,-76.1241872350586,43.0494291090267,198
-76.147629944699233,43.077657913304634,216,SNOW & ICE,2017-03-13 00:09:40.000,2017-03-13 00:09:40.000,1403 COURT ST                                     ,,-76.1476299446992,43.0776579133046,199
-76.181175452139883,43.029877403226507,283,SNOW & ICE,2017-03-13 00:09:41.000,2017-03-13 00:09:41.000,1120 STOLP AVE & REED AVE                         ,    Spreader On,-76.1811754521399,43.0298774032265,200
-76.150389743710875,43.051514108395672,285,SNOW & ICE,2017-03-13 00:09:43.000,2017-03-13 00:09:43.000,201-19 JAMES ST & WARREN ST N &                   ,    Start Moving,-76.1503897437109,43.0515141083957,201
-76.15056574376392,43.051457408378432,285,SNOW & ICE,2017-03-13 00:09:45.000,2017-03-13 00:09:45.000,201-19 JAMES ST & WARREN ST N &                   ,    Plow Down,-76.1505657437639,43.0514574083784,202
-76.111342731322111,43.055432710626796,179,SNOW & ICE,2017-03-13 00:09:48.000,2017-03-13 00:09:49.000,1820 EB I 690 SYRACUSE 13210                      ,,-76.1113427313221,43.0554327106268,203
-76.147460744631005,43.077473613277377,216,SNOW & ICE,2017-03-13 00:09:49.000,2017-03-13 00:09:49.000,1400 COURT ST & ROSS PARK                         ,    Start Moving,-76.147460744631,43.0774736132774,204
-76.110572131092695,43.055720110709395,286,SNOW & ICE,2017-03-13 00:09:54.000,2017-03-13 00:09:55.000,1824 EB I 690 SYRACUSE 13210                      ,,-76.1105721310927,43.0557201107094,205
-76.141916640905478,43.050734108580428,265,SNOW & ICE,2017-03-13 00:09:54.000,2017-03-13 00:09:55.000,701 WATER ST E & ALMOND ST &                      ,,-76.1419166409055,43.0507341085804,206
-76.14723924454853,43.077326713258969,216,SNOW & ICE,2017-03-13 00:09:55.000,2017-03-13 00:09:55.000,290 ROSS PK                                       ,    Spreader On,-76.1472392445485,43.077326713259,207
-76.170380647485757,43.013853200698378,263,SNOW & ICE,2017-03-13 00:09:59.000,2017-03-13 00:09:59.000,407 MITCHELL AVE & ARMSTRONG                      ,,-76.1703806474858,43.0138532006984,208
-76.170385647502997,43.014070600738179,263,SNOW & ICE,2017-03-13 00:10:03.000,2017-03-13 00:10:03.000,533 LYNCH AVE & MITCHELL AVE                      ,    Spreader Off,-76.170385647503,43.0140706007382,209
-76.184375153169213,43.02975940308081,283,SNOW & ICE,2017-03-13 00:10:10.000,2017-03-13 00:10:10.000,1408 STOLP AVE                                    ,    Spreader Off,-76.1843751531692,43.0297594030808,210
-76.170326647513008,43.014476100815045,263,SNOW & ICE,2017-03-13 00:10:11.000,2017-03-13 00:10:11.000,600 LYNCH AVE & MITCHELL AVE                      ,    Spreader On,-76.170326647513,43.014476100815,211
-76.149101944587798,43.069486211746991,178,SNOW & ICE,2017-03-13 00:10:15.000,2017-03-13 00:10:15.000,739-41 POND ST & FIRST NORTH ST                   ,,-76.1491019445878,43.069486211747,212
-76.154483445057394,43.051767708283698,285,SNOW & ICE,2017-03-13 00:10:18.000,2017-03-13 00:10:18.000,234-44 GENESEE ST W                               ,    Plow Up,-76.1544834450574,43.0517677082837,213
-76.112158232519292,43.068395212976839,208,SNOW & ICE,2017-03-13 00:10:19.000,2017-03-13 00:10:19.000,2400-10 JAMES ST & STAFFORD AVE                   ,,-76.1121582325193,43.0683952129768,214
-76.185665653583129,43.029694703018883,283,SNOW & ICE,2017-03-13 00:10:25.000,2017-03-13 00:10:25.000,1510 STOLP AVE & VELASKO RD                       ,    Stop Moving,-76.1856656535831,43.0296947030189,215
-76.169199947153544,43.014558600873848,263,SNOW & ICE,2017-03-13 00:10:25.000,2017-03-13 00:10:25.000,110 CLAYTON AVE & LYNCH AVE                       ,    Spreader Off,-76.1691999471535,43.0145586008738,216
-76.169055147106747,43.014561100879902,263,SNOW & ICE,2017-03-13 00:10:27.000,2017-03-13 00:10:26.000,110 CLAYTON AVE & LYNCH AVE                       ,    Spreader On,-76.1690551471067,43.0145611008799,217
-76.115180132263049,43.051199209700407,267,SNOW & ICE,2017-03-13 00:10:31.000,2017-03-13 00:10:31.000,1915 ERIE BLVD E & PEAT ST & K                    ,  Spreader Off  Stop Moving,-76.115180132263,43.0511992097004,218
-76.11230393160497,43.055028110515259,210,SNOW & ICE,2017-03-13 00:10:33.000,2017-03-13 00:10:34.000,1216 CANAL ST REAR                                ,,-76.112303931605,43.0550281105153,219
-76.185841153645626,43.029772103026332,283,SNOW & ICE,2017-03-13 00:10:34.000,2017-03-13 00:10:34.000,1510 STOLP AVE & VELASKO RD                       ,,-76.1858411536456,43.0297721030263,220
-76.150399445041018,43.069932411778673,178,SNOW & ICE,2017-03-13 00:10:34.000,2017-03-13 00:10:34.000,802 FIRST NORTH ST & DELONG A                     ,    Stop Moving,-76.150399445041,43.0699324117787,221
-76.136749439224587,43.050675108769582,265,SNOW & ICE,2017-03-13 00:10:38.000,2017-03-13 00:10:38.000,921-43 ERIE BLVD E & CROUSE AVE                   ,    Stop Moving,-76.1367494392246,43.0506751087696,222
-76.115175432299196,43.051723109796875,267,SNOW & ICE,2017-03-13 00:10:41.000,2017-03-13 00:10:41.000,1915 ERIE BLVD E & PEAT ST & K                    ,    Start Moving,-76.1151754322992,43.0517231097969,223
-76.15036894503902,43.070041911799954,178,SNOW & ICE,2017-03-13 00:10:46.000,2017-03-13 00:10:46.000,802 FIRST NORTH ST & DELONG A                     ,,-76.150368945039,43.0700419118,224
-76.186095153772484,43.03038990313005,283,SNOW & ICE,2017-03-13 00:10:47.000,2017-03-13 00:10:47.000,605 VELASKO RD                                    ,    Start Moving,-76.1860951537725,43.0303899031301,225
-76.111345731323055,43.05543221062657,179,SNOW & ICE,2017-03-13 00:10:48.000,2017-03-13 00:10:49.000,1820 EB I 690 SYRACUSE 13210                      ,,-76.1113457313231,43.0554322106266,226
-76.110567731090242,43.055705610706902,286,SNOW & ICE,2017-03-13 00:10:54.000,2017-03-13 00:10:55.000,1824 EB I 690 SYRACUSE 13210                      ,,-76.1105677310902,43.0557056107069,227
-76.145128143765049,43.075962713090306,216,SNOW & ICE,2017-03-13 00:10:55.000,2017-03-13 00:10:55.000,224 ROSS PK                                       ,,-76.145128143765,43.0759627130903,228
-76.158239746389796,43.053345708428125,285,SNOW & ICE,2017-03-13 00:11:01.000,2017-03-13 00:11:01.000,500-08 GENESEE ST W & WEST ST N                   ,    Stop Moving,-76.1582397463898,43.0533457084281,229
-76.136582139172205,43.050701608780948,265,SNOW & ICE,2017-03-13 00:11:02.000,2017-03-13 00:11:03.000,915-19 WATER ST E & CROUSE AVE N                  ,    Start Moving,-76.1365821391722,43.0507016087809,230
-76.144819443638866,43.075601913036031,216,SNOW & ICE,2017-03-13 00:11:02.000,2017-03-13 00:11:02.000,172 ROSS PK                                       ,    Spreader Off,-76.1448194436389,43.075601913036,231
-76.164774445733613,43.014772201084426,263,SNOW & ICE,2017-03-13 00:11:08.000,2017-03-13 00:11:08.000,2248 SOUTH AVE & LYNCH AVE                        ,    Spreader Off,-76.1647744457336,43.0147722010844,232
-76.164756945727888,43.014771601085023,263,SNOW & ICE,2017-03-13 00:11:09.000,2017-03-13 00:11:09.000,2248 SOUTH AVE & LYNCH AVE                        ,    Stop Moving,-76.1647569457279,43.014771601085,233
-76.186833254128359,43.032006903398646,283,SNOW & ICE,2017-03-13 00:11:10.000,2017-03-13 00:11:10.000,2000 BELLEVUE AVE & VELASKO RD                    ,    Spreader On,-76.1868332541284,43.0320069033986,234
-76.115423732558966,43.05421511024521,267,SNOW & ICE,2017-03-13 00:11:10.000,2017-03-13 00:11:10.000,338 PEAT ST & CANAL ST                            ,    Plow Up,-76.115423732559,43.0542151102452,235
-76.114956732411656,43.054273910274084,267,SNOW & ICE,2017-03-13 00:11:16.000,2017-03-13 00:11:17.000,340 PEAT ST                                       ,,-76.1149567324117,43.0542739102741,236
-76.164375445618447,43.014970701136427,263,SNOW & ICE,2017-03-13 00:11:19.000,2017-03-13 00:11:19.000,2242 SOUTH AVE                                    ,    Spreader On,-76.1643754456184,43.0149707011364,237
-76.112127732507545,43.06836941297329,208,SNOW & ICE,2017-03-13 00:11:19.000,2017-03-13 00:11:19.000,2400-10 JAMES ST & STAFFORD AVE                   ,,-76.1121277325075,43.0683694129733,238
-76.114832432358725,43.05409911024676,267,SNOW & ICE,2017-03-13 00:11:20.000,2017-03-13 00:11:20.000,1212 CANAL ST                                     ,    Plow Down,-76.1148324323587,43.0540991102468,239
-76.164214145578768,43.015146401174967,263,SNOW & ICE,2017-03-13 00:11:22.000,2017-03-13 00:11:22.000,2230 SOUTH AVE                                    ,    Start Moving,-76.1642141455788,43.015146401175,240
-76.114482132240539,43.054036210248746,267,SNOW & ICE,2017-03-13 00:11:25.000,2017-03-13 00:11:25.000,1216 CANAL ST                                     ,,-76.1144821322405,43.0540362102487,241
-76.185886953853867,43.032457603518196,283,SNOW & ICE,2017-03-13 00:11:25.000,2017-03-13 00:11:25.000,1912 BELLEVUE AVE                                 ,,-76.1858869538539,43.0324576035182,242
-76.185515753735615,43.03248720353799,283,SNOW & ICE,2017-03-13 00:11:29.000,2017-03-13 00:11:29.000,1904 BELLEVUE AVE                                 ,    Spreader Off,-76.1855157537356,43.032487203538,243
-76.149888744926898,43.070648411929959,178,SNOW & ICE,2017-03-13 00:11:30.000,2017-03-13 00:11:30.000,113 DELONG AVE                                    ,    Start Moving,-76.1498887449269,43.07064841193,244
-76.185232253645111,43.032507203552676,283,SNOW & ICE,2017-03-13 00:11:31.000,2017-03-13 00:11:31.000,1868-70 BELLEVUE AVE                              ,    Spreader On,-76.1852322536451,43.0325072035527,245
-76.110553431085094,43.055698710706181,286,SNOW & ICE,2017-03-13 00:11:33.000,2017-03-13 00:11:34.000,1824 EB I 690 SYRACUSE 13210                      ,    Plow Up,-76.1105534310851,43.0556987107062,246
-76.112297431603352,43.055035110516783,210,SNOW & ICE,2017-03-13 00:11:33.000,2017-03-13 00:11:34.000,1216 CANAL ST REAR                                ,,-76.1122974316034,43.0550351105168,247
-76.142640442838129,43.074304212882133,216,SNOW & ICE,2017-03-13 00:11:34.000,2017-03-13 00:11:34.000,102 ROSS PK & BUTTERNUT ST                        ,,-76.1426404428381,43.0743042128821,248
-76.142594742824485,43.074320912886975,216,SNOW & ICE,2017-03-13 00:11:35.000,2017-03-13 00:11:35.000,102 ROSS PK & BUTTERNUT ST                        ,    Spreader On,-76.1425947428245,43.074320912887,249
-76.110564131083066,43.055622210691723,286,SNOW & ICE,2017-03-13 00:11:43.000,2017-03-13 00:11:44.000,1824 EB I 690 SYRACUSE 13210                      ,    Start Moving,-76.1105641310831,43.0556222106917,250
-76.111932131450374,43.054556110442924,267,SNOW & ICE,2017-03-13 00:11:43.000,2017-03-13 00:11:43.000,1231 CANAL ST SYRACUSE 13210                      ,    Plow Up,-76.1119321314504,43.0545561104429,251
-76.183603153120998,43.032566903626787,283,SNOW & ICE,2017-03-13 00:11:45.000,2017-03-13 00:11:45.000,1826 BELLEVUE AVE                                 ,    Spreader Off,-76.183603153121,43.0325669036268,252
-76.14257444285407,43.074822612979879,216,SNOW & ICE,2017-03-13 00:11:47.000,2017-03-13 00:11:47.000,1723 BUTTERNUT ST & DALE ST                       ,    Spreader Off,-76.1425744428541,43.0748226129799,253
-76.111348231322779,43.055417110623722,179,SNOW & ICE,2017-03-13 00:11:48.000,2017-03-13 00:11:49.000,1820 EB I 690 SYRACUSE 13210                      ,,-76.1113482313228,43.0554171106237,254
-76.158796646569655,43.053334108404414,285,SNOW & ICE,2017-03-13 00:11:49.000,2017-03-13 00:11:50.000,500-08 GENESEE ST W & WEST ST N                   ,,-76.1587966465697,43.0533341084044,255
-76.158807646572441,43.053323408402015,285,SNOW & ICE,2017-03-13 00:11:50.000,2017-03-13 00:11:50.000,500-08 GENESEE ST W & WEST ST N                   ,    Start Moving,-76.1588076465724,43.053323408402,256
-76.112176631564694,43.055042710522862,210,SNOW & ICE,2017-03-13 00:11:51.000,2017-03-13 00:11:52.000,1231 CANAL ST SYRACUSE 13210                      ,    Start Moving,-76.1121766315647,43.0550427105229,257
-76.142630742895491,43.07514371303666,216,SNOW & ICE,2017-03-13 00:11:53.000,2017-03-13 00:11:53.000,103 DALE ST                                       ,    Spreader On,-76.1426307428955,43.0751437130367,258
-76.158798146565303,43.053266908392011,285,SNOW & ICE,2017-03-13 00:11:57.000,2017-03-13 00:11:58.000,500-08 GENESEE ST W & WEST ST N                   ,,-76.1587981465653,43.053266908392,259
-76.111671931420659,43.055317410592863,286,SNOW & ICE,2017-03-13 00:12:01.000,2017-03-13 00:12:02.000,1818 EB I 690 SYRACUSE 13210                      ,,-76.1116719314207,43.0553174105929,260
-76.129356136819183,43.050586709039472,265,SNOW & ICE,2017-03-13 00:12:02.000,2017-03-13 00:12:03.000,1231 ERIE BLVD E TO LODI ST &                     ,,-76.1293561368192,43.0505867090395,261
-76.143001643037721,43.075446713077937,216,SNOW & ICE,2017-03-13 00:12:03.000,2017-03-13 00:12:03.000,1801 BUTTERNUT ST & DALE ST                       ,    Stop Moving,-76.1430016430377,43.0754467130779,262
-76.158732246547487,43.053316608403669,285,SNOW & ICE,2017-03-13 00:12:06.000,2017-03-13 00:12:07.000,500-08 GENESEE ST W & WEST ST N                   ,,-76.1587322465475,43.0533166084037,263
-76.110226430943698,43.055208210628692,267,SNOW & ICE,2017-03-13 00:12:06.000,2017-03-13 00:12:07.000,1200 CANAL ST                                     ,,-76.1102264309437,43.0552082106287,264
-76.161441744908174,43.018325901867016,263,SNOW & ICE,2017-03-13 00:12:07.000,2017-03-13 00:12:07.000,2000 SOUTH AVE & GLENWOOD AVE                     ,    Stop Moving,-76.1614417449082,43.018325901867,265
-76.161428444904899,43.018340101870145,263,SNOW & ICE,2017-03-13 00:12:08.000,2017-03-13 00:12:08.000,2000 SOUTH AVE & GLENWOOD AVE                     ,    Spreader Off,-76.1614284449049,43.0183401018701,266
-76.158616946509738,43.053311708407257,285,SNOW & ICE,2017-03-13 00:12:10.000,2017-03-13 00:12:11.000,500-08 GENESEE ST W & WEST ST N                   ,,-76.1586169465097,43.0533117084073,267
-76.149284944793564,43.071517212112902,178,SNOW & ICE,2017-03-13 00:12:15.000,2017-03-13 00:12:15.000,133 DELONG AVE                                    ,    Stop Moving,-76.1492849447936,43.0715172121129,268
-76.112497731676427,43.055146910529601,286,SNOW & ICE,2017-03-13 00:12:16.000,2017-03-13 00:12:17.000,1216 CANAL ST REAR                                ,,-76.1124977316764,43.0551469105296,269
-76.143544743239786,43.07580471312265,216,SNOW & ICE,2017-03-13 00:12:16.000,2017-03-13 00:12:16.000,128 DALE ST                                       ,    Start Moving,-76.1435447432398,43.0758047131227,270
-76.110610931083812,43.055421410653004,267,SNOW & ICE,2017-03-13 00:12:16.000,2017-03-13 00:12:17.000,1245 CANAL ST SYRACUSE 13210                      ,,-76.1106109310838,43.055421410653,271
-76.112446731652511,43.055044610512766,286,SNOW & ICE,2017-03-13 00:12:19.000,2017-03-13 00:12:20.000,1216 CANAL ST REAR                                ,,-76.1124467316525,43.0550446105128,272
-76.112046232474128,43.068273212958772,208,SNOW & ICE,2017-03-13 00:12:19.000,2017-03-13 00:12:19.000,2400-10 JAMES ST & STAFFORD AVE                   ,,-76.1120462324741,43.0682732129588,273
-76.112381731630393,43.055030610512716,286,SNOW & ICE,2017-03-13 00:12:22.000,2017-03-13 00:12:22.000,1216 CANAL ST REAR                                ,    Stop Moving,-76.1123817316304,43.0550306105127,274
-76.14924394478254,43.071548412120229,178,SNOW & ICE,2017-03-13 00:12:25.000,2017-03-13 00:12:25.000,135 DELONG AVE                                    ,,-76.1492439447825,43.0715484121202,275
-76.110244430952264,43.055246210634991,210,SNOW & ICE,2017-03-13 00:12:27.000,2017-03-13 00:12:28.000,1200 CANAL ST                                     ,,-76.1102444309523,43.055246210635,276
-76.110346130973312,43.055079910600512,210,SNOW & ICE,2017-03-13 00:12:33.000,2017-03-13 00:12:34.000,1200 CANAL ST                                     ,,-76.1103461309733,43.0550799106005,277
-76.149550144855638,43.071184112041429,178,SNOW & ICE,2017-03-13 00:12:34.000,2017-03-13 00:12:34.000,125 DELONG AVE                                    ,    Start Moving,-76.1495501448556,43.0711841120414,278
-76.161335444889531,43.018546401911671,263,SNOW & ICE,2017-03-13 00:12:38.000,2017-03-13 00:12:38.000,2000 SOUTH AVE & GLENWOOD AVE                     ,    Start Moving,-76.1613354448895,43.0185464019117,279
-76.11233993163178,43.055238210552474,267,SNOW & ICE,2017-03-13 00:12:39.000,2017-03-13 00:12:40.000,1814 EB I 690 SYRACUSE 13210                      ,    Stop Moving,-76.1123399316318,43.0552382105525,280
-76.156549245800463,43.052778608389403,285,SNOW & ICE,2017-03-13 00:12:42.000,2017-03-13 00:12:43.000,400 GENESEE ST W & WALLACE ST                     ,    Stop Moving,-76.1565492458005,43.0527786083894,281
-76.176304450772378,43.032827403957548,283,SNOW & ICE,2017-03-13 00:12:45.000,2017-03-13 00:12:45.000,1224 BELLEVUE AVE                                 ,,-76.1763044507724,43.0328274039575,282
-76.111340131321313,43.055433410627025,179,SNOW & ICE,2017-03-13 00:12:48.000,2017-03-13 00:12:49.000,1820 EB I 690 SYRACUSE 13210                      ,,-76.1113401313213,43.055433410627,283
-76.175705650581079,43.032868203988237,283,SNOW & ICE,2017-03-13 00:12:50.000,2017-03-13 00:12:50.000,1202 BELLEVUE AVE & GEDDES ST                     ,    Spreader On,-76.1757056505811,43.0328682039882,284
-76.175471250498973,43.032783703981806,283,SNOW & ICE,2017-03-13 00:12:56.000,2017-03-13 00:12:56.000,1202 BELLEVUE AVE & GEDDES ST                     ,,-76.175471250499,43.0327837039818,285
-76.156513945787424,43.052756708386731,285,SNOW & ICE,2017-03-13 00:12:57.000,2017-03-13 00:12:58.000,400 GENESEE ST W & WALLACE ST                     ,,-76.1565139457874,43.0527567083867,286
-76.112345931634238,43.055245410553567,267,SNOW & ICE,2017-03-13 00:13:00.000,2017-03-13 00:13:00.000,1814 EB I 690 SYRACUSE 13210                      ,    Plow Down,-76.1123459316342,43.0552454105536,287
-76.150246944991466,43.06993171178447,178,SNOW & ICE,2017-03-13 00:13:00.000,2017-03-13 00:13:00.000,712 FIRST NORTH ST & DELONG A                     ,,-76.1502469449915,43.0699317117845,288
-76.156550145796274,43.052716708377979,285,SNOW & ICE,2017-03-13 00:13:00.000,2017-03-13 00:13:00.000,400 GENESEE ST W & WALLACE ST                     ,    Start Moving,-76.1565501457963,43.052716708378,289
-76.175453450472034,43.032489903928479,283,SNOW & ICE,2017-03-13 00:13:02.000,2017-03-13 00:13:02.000,1502 GEDDES ST S                                  ,    Spreader Off,-76.175453450472,43.0324899039285,290
-76.121894434303172,43.049270109086173,265,SNOW & ICE,2017-03-13 00:13:02.000,2017-03-13 00:13:03.000,1636 ERIE BLVD E & COLUMBUS AV                    ,,-76.1218944343032,43.0492701090862,291
-76.156637945822524,43.052685108368792,285,SNOW & ICE,2017-03-13 00:13:08.000,2017-03-13 00:13:09.000,400 GENESEE ST W & WALLACE ST                     ,,-76.1566379458225,43.0526851083688,292
-76.175285950377599,43.031932603832516,283,SNOW & ICE,2017-03-13 00:13:12.000,2017-03-13 00:13:12.000,1509 GEDDES ST S & GRANT AVE                      ,    Spreader On,-76.1752859503776,43.0319326038325,293
-76.14644374436196,43.078319413472059,216,SNOW & ICE,2017-03-13 00:13:15.000,2017-03-13 00:13:15.000,1437 COURT ST                                     ,,-76.146443744362,43.0783194134721,294
-76.149111244572453,43.069231611699877,178,SNOW & ICE,2017-03-13 00:13:19.000,2017-03-13 00:13:19.000,735 POND ST                                       ,,-76.1491112445725,43.0692316116999,295
-76.112062232479431,43.06827471295842,208,SNOW & ICE,2017-03-13 00:13:19.000,2017-03-13 00:13:19.000,2400-10 JAMES ST & STAFFORD AVE                   ,,-76.1120622324794,43.0682747129584,296
-76.112364631623691,43.05501441051041,286,SNOW & ICE,2017-03-13 00:13:21.000,2017-03-13 00:13:22.000,1216 CANAL ST REAR                                ,,-76.1123646316237,43.0550144105104,297
-76.114774932337738,43.054066710243042,210,SNOW & ICE,2017-03-13 00:13:27.000,2017-03-13 00:13:27.000,1212 CANAL ST                                     ,,-76.1147749323377,43.054066710243,298
-76.149627244715006,43.068886211616451,178,SNOW & ICE,2017-03-13 00:13:30.000,2017-03-13 00:13:30.000,723-25 POND ST & LAWRENCE ST                      ,,-76.149627244715,43.0688862116165,299
-76.145481644082253,43.07877111359231,216,SNOW & ICE,2017-03-13 00:13:30.000,2017-03-13 00:13:30.000,1520-22 COURT ST & KUHL AVE                       ,,-76.1454816440823,43.0787711135923,300
-76.173378449761557,43.031969903913293,283,SNOW & ICE,2017-03-13 00:13:34.000,2017-03-13 00:13:34.000,118 GRANT AVE                                     ,    Plow Down,-76.1733784497616,43.0319699039133,301
-76.159263944539504,43.023022602815011,263,SNOW & ICE,2017-03-13 00:13:36.000,2017-03-13 00:13:36.000,1500 SOUTH AVE & COLVIN ST W                      ,    Stop Moving,-76.1592639445395,43.023022602815,302
-76.115374732546414,43.05426141025562,210,SNOW & ICE,2017-03-13 00:13:40.000,2017-03-13 00:13:40.000,338 PEAT ST & CANAL ST                            ,    Stop Moving,-76.1153747325464,43.0542614102556,303
-76.159434944609913,43.023230202846577,263,SNOW & ICE,2017-03-13 00:13:46.000,2017-03-13 00:13:46.000,1420-22 SOUTH AVE & COLVIN ST W                   ,,-76.1594349446099,43.0232302028466,304
-76.111343931322409,43.05543141062649,179,SNOW & ICE,2017-03-13 00:13:48.000,2017-03-13 00:13:49.000,1820 EB I 690 SYRACUSE 13210                      ,,-76.1113439313224,43.0554314106265,305
-76.159683444690074,43.023224102835812,263,SNOW & ICE,2017-03-13 00:13:50.000,2017-03-13 00:13:50.000,1420-22 SOUTH AVE & COLVIN ST W                   ,    Start Moving,-76.1596834446901,43.0232241028358,306
-76.159825244735586,43.023217202829045,263,SNOW & ICE,2017-03-13 00:13:52.000,2017-03-13 00:13:52.000,1420-22 SOUTH AVE & COLVIN ST W                   ,    Spreader On,-76.1598252447356,43.023217202829,307
-76.172029749302027,43.031663203909176,283,SNOW & ICE,2017-03-13 00:14:00.000,2017-03-13 00:14:00.000,142 ROBERTS AVE & WILL AVE &                      ,,-76.172029749302,43.0316632039092,308
-76.112346631635276,43.055257110555679,267,SNOW & ICE,2017-03-13 00:14:00.000,2017-03-13 00:14:00.000,1814 EB I 690 SYRACUSE 13210                      ,,-76.1123466316353,43.0552571105557,309
-76.172011749291869,43.031603703898924,283,SNOW & ICE,2017-03-13 00:14:02.000,2017-03-13 00:14:02.000,142 ROBERTS AVE & WILL AVE &                      ,    Spreader Off,-76.1720117492919,43.0316037038989,310
-76.11481393213721,43.051101609696623,265,SNOW & ICE,2017-03-13 00:14:02.000,2017-03-13 00:14:03.000,2016 ERIE BLVD E & WESTMORELAN                    ,,-76.1148139321372,43.0511016096966,311
-76.163202248012652,43.053523208268444,285,SNOW & ICE,2017-03-13 00:14:08.000,2017-03-13 00:14:08.000,666-68 GENESEE ST W & LEAVENWORT                  ,,-76.1632022480127,43.0535232082684,312
-76.1621696454839,43.023049202707369,263,SNOW & ICE,2017-03-13 00:14:16.000,2017-03-13 00:14:16.000,1508 COLVIN ST W                                  ,    Spreader Off,-76.1621696454839,43.0230492027074,313
-76.152792145821394,43.069986911695963,178,SNOW & ICE,2017-03-13 00:14:16.000,2017-03-13 00:14:16.000,707 KIRKPATRICK ST                                ,,-76.1527921458214,43.069986911696,314
-76.171947249233142,43.031078603804922,283,SNOW & ICE,2017-03-13 00:14:17.000,2017-03-13 00:14:17.000,211 ROBERTS AVE                                   ,    Plow Up,-76.1719472492331,43.0310786038049,315
-76.112098632492149,43.068287112959275,208,SNOW & ICE,2017-03-13 00:14:19.000,2017-03-13 00:14:19.000,2400-10 JAMES ST & STAFFORD AVE                   ,,-76.1120986324921,43.0682871129593,316
-76.112308631602843,43.054977210505719,286,SNOW & ICE,2017-03-13 00:14:21.000,2017-03-13 00:14:22.000,1216 CANAL ST REAR                                ,,-76.1123086316028,43.0549772105057,317
-76.115462732572425,43.05422621024573,210,SNOW & ICE,2017-03-13 00:14:24.000,2017-03-13 00:14:25.000,338 PEAT ST & CANAL ST                            ,    Start Moving,-76.1154627325724,43.0542262102457,318
-76.162677745639883,43.022925902665058,263,SNOW & ICE,2017-03-13 00:14:25.000,2017-03-13 00:14:25.000,1526 COLVIN ST W                                  ,,-76.1626777456399,43.0229259026651,319
-76.152981445844986,43.069461711592183,178,SNOW & ICE,2017-03-13 00:14:27.000,2017-03-13 00:14:27.000,700 KIRKPATRICK ST & SPRING S                     ,,-76.152981445845,43.0694617115922,320
-76.112191731565431,43.054984710511633,286,SNOW & ICE,2017-03-13 00:14:27.000,2017-03-13 00:14:28.000,1216 CANAL ST REAR                                ,    Start Moving,-76.1121917315654,43.0549847105116,321
-76.142681942949096,43.075657113128962,216,SNOW & ICE,2017-03-13 00:14:30.000,2017-03-13 00:14:30.000,1811 BUTTERNUT ST TO DALE ST                      ,,-76.1426819429491,43.075657113129,322
-76.112471431673086,43.055219610543972,267,SNOW & ICE,2017-03-13 00:14:30.000,2017-03-13 00:14:30.000,1216 CANAL ST REAR                                ,    Start Moving,-76.1124714316731,43.055219610544,323
-76.112507731675947,43.055095710519815,267,SNOW & ICE,2017-03-13 00:14:34.000,2017-03-13 00:14:34.000,1216 CANAL ST REAR                                ,,-76.1125077316759,43.0550957105198,324
-76.112385231631507,43.055030110512504,267,SNOW & ICE,2017-03-13 00:14:38.000,2017-03-13 00:14:38.000,1216 CANAL ST REAR                                ,    Stop Moving,-76.1123852316315,43.0550301105125,325
-76.167552449431099,43.053620908117807,285,SNOW & ICE,2017-03-13 00:14:38.000,2017-03-13 00:14:38.000,800-32 GENESEE ST W & VAN RENSSE                  ,    Plow Down,-76.1675524494311,43.0536209081178,326
-76.152377945623556,43.069106911550421,178,SNOW & ICE,2017-03-13 00:14:40.000,2017-03-13 00:14:40.000,115-21 CARLISLE ST & SPRING ST                    ,,-76.1523779456236,43.0691069115504,327
-76.1719199491708,43.030335103669302,283,SNOW & ICE,2017-03-13 00:14:40.000,2017-03-13 00:14:40.000,428 STOLP AVE & ROBERTS AVE                       ,    Stop Moving,-76.1719199491708,43.0303351036693,328
-76.162775245616245,43.022158102520088,263,SNOW & ICE,2017-03-13 00:14:41.000,2017-03-13 00:14:41.000,116 CRADDOCK ST & ANNETTA ST                      ,    Spreader On,-76.1627752456162,43.0221581025201,329
-76.142447742814014,43.07483741298752,216,SNOW & ICE,2017-03-13 00:14:44.000,2017-03-13 00:14:44.000,1723 BUTTERNUT ST & DALE ST                       ,,-76.142447742814,43.0748374129875,330
-76.11133763132014,43.055428110626131,179,SNOW & ICE,2017-03-13 00:14:48.000,2017-03-13 00:14:49.000,1820 EB I 690 SYRACUSE 13210                      ,,-76.1113376313201,43.0554281106261,331
-76.169300150001717,43.053670408059183,285,SNOW & ICE,2017-03-13 00:14:50.000,2017-03-13 00:14:50.000,932-62 GENESEE ST W                               ,    Plow Up,-76.1693001500017,43.0536704080592,332
-76.171842249104401,43.029763103567142,283,SNOW & ICE,2017-03-13 00:14:52.000,2017-03-13 00:14:52.000,429-31 STOLP AVE & ROBERTS AVE                    ,    Start Moving,-76.1718422491044,43.0297631035671,333
-76.110884431174298,43.055445610646871,286,SNOW & ICE,2017-03-13 00:14:53.000,2017-03-13 00:14:53.000,1243 CANAL ST SYRACUSE 13210                      ,    Stop Moving,-76.1108844311743,43.0554456106469,334
-76.141526442510298,43.074772213011244,216,SNOW & ICE,2017-03-13 00:14:59.000,2017-03-13 00:14:59.000,121-23 HAROLD ST                                  ,,-76.1415264425103,43.0747722130112,335
-76.106579929618974,43.053242910408521,265,SNOW & ICE,2017-03-13 00:15:02.000,2017-03-13 00:15:03.000,2406 ERIE BLVD E                                  ,,-76.106579929619,43.0532429104085,336
-76.152973745733476,43.067949611314788,178,SNOW & ICE,2017-03-13 00:15:03.000,2017-03-13 00:15:03.000,634 CARBON ST & CARLISLE ST                       ,,-76.1529737457335,43.0679496113148,337
-76.170430950372477,43.053724408025246,285,SNOW & ICE,2017-03-13 00:15:03.000,2017-03-13 00:15:03.000,966 GENESEE ST W & GEDDES ST                      ,    Stop Moving,-76.1704309503725,43.0537244080252,338
-76.171097450590153,43.053744908003182,285,SNOW & ICE,2017-03-13 00:15:14.000,2017-03-13 00:15:14.000,1000-08 GENESEE ST W & GEDDES ST                  ,    Start Moving,-76.1710974505902,43.0537449080032,339
-76.11207263248275,43.06827371295784,208,SNOW & ICE,2017-03-13 00:15:19.000,2017-03-13 00:15:19.000,2400-10 JAMES ST & STAFFORD AVE                   ,,-76.1120726324828,43.0682737129578,340
-76.171840448972787,43.027942703232569,283,SNOW & ICE,2017-03-13 00:15:24.000,2017-03-13 00:15:24.000,436 ROBERTS AVE & CROSSETT ST                     ,    Spreader On,-76.1718404489728,43.0279427032326,341
-76.117071432849329,43.050817109557016,210,SNOW & ICE,2017-03-13 00:15:24.000,2017-03-13 00:15:25.000,134 KIDD AVE                                      ,,-76.1170714328493,43.050817109557,342
-76.150843944979016,43.06707111123594,178,SNOW & ICE,2017-03-13 00:15:27.000,2017-03-13 00:15:27.000,601 POND ST & CARBON ST                           ,    Stop Moving,-76.150843944979,43.0670711112359,343
-76.172780451139317,43.053788207945907,285,SNOW & ICE,2017-03-13 00:15:28.000,2017-03-13 00:15:28.000,1056 GENESEE ST W                                 ,    Plow Down,-76.1727804511393,43.0537882079459,344
-76.165285746423947,43.022066202405988,263,SNOW & ICE,2017-03-13 00:15:31.000,2017-03-13 00:15:31.000,607 SUMMIT AVE & ANNETTA ST                       ,    Spreader Off,-76.1652857464239,43.022066202406,345
-76.150619944913515,43.067171111263008,178,SNOW & ICE,2017-03-13 00:15:33.000,2017-03-13 00:15:33.000,603 POND ST                                       ,,-76.1506199449135,43.067171111263,346
-76.11234643161562,43.054984710505657,267,SNOW & ICE,2017-03-13 00:15:37.000,2017-03-13 00:15:37.000,1216 CANAL ST REAR                                ,,-76.1123464316156,43.0549847105057,347
-76.165547646503057,43.021985102380931,263,SNOW & ICE,2017-03-13 00:15:38.000,2017-03-13 00:15:38.000,613 SUMMIT AVE & ANNETTA ST                       ,,-76.1655476465031,43.0219851023809,348
-76.150436144872558,43.067429911317625,178,SNOW & ICE,2017-03-13 00:15:38.000,2017-03-13 00:15:38.000,609 POND ST & POND LN                             ,    Start Moving,-76.1504361448726,43.0674299113176,349
-76.141313742258333,43.072233612553262,216,SNOW & ICE,2017-03-13 00:15:42.000,2017-03-13 00:15:42.000,1844 GRANT BLVD & GREENLAND DR                    ,    Spreader Off,-76.1413137422583,43.0722336125533,350
-76.150340744851206,43.067563611345889,178,SNOW & ICE,2017-03-13 00:15:43.000,2017-03-13 00:15:43.000,611 POND ST & POND LN                             ,    Stop Moving,-76.1503407448512,43.0675636113459,351
-76.173656649553877,43.027831203141702,283,SNOW & ICE,2017-03-13 00:15:47.000,2017-03-13 00:15:47.000,535 STINARD AVE & CROSSETT ST                     ,    Spreader Off,-76.1736566495539,43.0278312031417,352
-76.111321631314155,43.055417110624731,179,SNOW & ICE,2017-03-13 00:15:48.000,2017-03-13 00:15:49.000,1820 EB I 690 SYRACUSE 13210                      ,,-76.1113216313142,43.0554171106247,353
-76.165544746461023,43.021413702275993,263,SNOW & ICE,2017-03-13 00:15:52.000,2017-03-13 00:15:52.000,621 SUMMIT AVE & CHARMOUTH DR                     ,,-76.165544746461,43.021413702276,354
-76.110882131174449,43.055457910649231,286,SNOW & ICE,2017-03-13 00:15:52.000,2017-03-13 00:15:53.000,1243 CANAL ST SYRACUSE 13210                      ,,-76.1108821311744,43.0554579106492,355
-76.165412246418015,43.021413102281016,263,SNOW & ICE,2017-03-13 00:15:55.000,2017-03-13 00:15:55.000,621 SUMMIT AVE & CHARMOUTH DR                     ,    Spreader On,-76.165412246418,43.021413102281,356
-76.142106642513653,43.072205912517475,216,SNOW & ICE,2017-03-13 00:15:55.000,2017-03-13 00:15:55.000,1420 BUTTERNUT ST & GRANT BLVD                    ,,-76.1421066425137,43.0722059125175,357
-76.150405644874027,43.067588111347895,178,SNOW & ICE,2017-03-13 00:15:57.000,2017-03-13 00:15:57.000,611 POND ST & POND LN                             ,,-76.150405644874,43.0675881113479,358
-76.150426944881815,43.067600111349272,178,SNOW & ICE,2017-03-13 00:15:58.000,2017-03-13 00:15:58.000,611 POND ST & POND LN                             ,    Start Moving,-76.1504269448818,43.0676001113493,359
-76.098206626970736,43.054207210909404,265,SNOW & ICE,2017-03-13 00:16:02.000,2017-03-13 00:16:03.000,2646 ERIE BLVD E                                  ,,-76.0982066269707,43.0542072109094,360
-76.175071450022386,43.027964903111467,283,SNOW & ICE,2017-03-13 00:16:07.000,2017-03-13 00:16:07.000,1909 GEDDES ST S                                  ,,-76.1750714500224,43.0279649031115,361
-76.112060432478117,43.068264212956585,208,SNOW & ICE,2017-03-13 00:16:19.000,2017-03-13 00:16:19.000,2400-10 JAMES ST & STAFFORD AVE                   ,,-76.1120604324781,43.0682642129566,362
-76.179283153172761,43.052731207499576,285,SNOW & ICE,2017-03-13 00:16:19.000,2017-03-13 00:16:19.000,1306 GENESEE ST W & DEWEY PL                      ,    Plow Up,-76.1792831531728,43.0527312074996,363
-76.175164950117448,43.028864203273166,283,SNOW & ICE,2017-03-13 00:16:19.000,2017-03-13 00:16:19.000,325-27 GORDON AVE & GEDDES ST S                   ,    Spreader On,-76.1751649501174,43.0288642032732,364
-76.151834745384278,43.068233111410976,178,SNOW & ICE,2017-03-13 00:16:23.000,2017-03-13 00:16:23.000,114 POND LN & SPRING LN                           ,    Stop Moving,-76.1518347453843,43.068233111411,365
-76.126114135732706,43.050107709076883,210,SNOW & ICE,2017-03-13 00:16:24.000,2017-03-13 00:16:25.000,1433 ERIE BLVD E                                  ,,-76.1261141357327,43.0501077090769,366
-76.174993950077379,43.029078103319122,283,SNOW & ICE,2017-03-13 00:16:26.000,2017-03-13 00:16:26.000,324-26 GORDON AVE & GEDDES ST S                   ,,-76.1749939500774,43.0290781033191,367
-76.11077723114181,43.055477710656916,286,SNOW & ICE,2017-03-13 00:16:33.000,2017-03-13 00:16:34.000,1243 CANAL ST SYRACUSE 13210                      ,    Start Moving,-76.1107772311418,43.0554777106569,368
-76.16271024553032,43.021256402356805,263,SNOW & ICE,2017-03-13 00:16:37.000,2017-03-13 00:16:37.000,100 CHARMOUTH DR & CRADDOCK S                     ,,-76.1627102455303,43.0212564023568,369
-76.142544142838659,43.074745112966802,216,SNOW & ICE,2017-03-13 00:16:37.000,2017-03-13 00:16:37.000,1719 BUTTERNUT ST                                 ,,-76.1425441428387,43.0747451129668,370
-76.112326431609716,43.054992710507875,267,SNOW & ICE,2017-03-13 00:16:37.000,2017-03-13 00:16:37.000,1216 CANAL ST REAR                                ,,-76.1123264316097,43.0549927105079,371
-76.142513242830887,43.07477691297386,216,SNOW & ICE,2017-03-13 00:16:39.000,2017-03-13 00:16:39.000,1719 BUTTERNUT ST                                 ,    Spreader On,-76.1425132428309,43.0747769129739,372
-76.182026454024623,43.052202407296072,285,SNOW & ICE,2017-03-13 00:16:43.000,2017-03-13 00:16:44.000,1433 GENESEE ST W TO ERIE BLVD                    ,    Stop Moving,-76.1820264540246,43.0522024072961,373
-76.11033523098871,43.055343410649343,286,SNOW & ICE,2017-03-13 00:16:45.000,2017-03-13 00:16:46.000,1200 CANAL ST                                     ,,-76.1103352309887,43.0553434106493,374
-76.112232631578749,43.054985410510199,267,SNOW & ICE,2017-03-13 00:16:47.000,2017-03-13 00:16:47.000,1216 CANAL ST REAR                                ,    Start Moving,-76.1122326315787,43.0549854105102,375
-76.11133073131758,43.055423610625581,179,SNOW & ICE,2017-03-13 00:16:48.000,2017-03-13 00:16:49.000,1820 EB I 690 SYRACUSE 13210                      ,,-76.1113307313176,43.0554236106256,376
-76.151846945384435,43.068180111400771,178,SNOW & ICE,2017-03-13 00:16:51.000,2017-03-13 00:16:51.000,110 SPRING LN                                     ,,-76.1518469453844,43.0681801114008,377
-76.151796245366867,43.068164711399902,178,SNOW & ICE,2017-03-13 00:16:53.000,2017-03-13 00:16:53.000,114 POND LN & SPRING LN                           ,    Start Moving,-76.1517962453669,43.0681647113999,378
-76.173207149506553,43.029199603410682,283,SNOW & ICE,2017-03-13 00:16:53.000,2017-03-13 00:16:53.000,236 GORDON AVE                                    ,    Stop Moving,-76.1732071495066,43.0291996034107,379
-76.162752945493253,43.020547902224862,263,SNOW & ICE,2017-03-13 00:16:56.000,2017-03-13 00:16:56.000,300 HILLVIEW AVE & CRADDOCK S                     ,,-76.1627529454933,43.0205479022249,380
-76.110323230965932,43.055080710601523,286,SNOW & ICE,2017-03-13 00:16:57.000,2017-03-13 00:16:58.000,1200 CANAL ST                                     ,,-76.1103232309659,43.0550807106015,381
-76.182688454234153,43.052130207257143,285,SNOW & ICE,2017-03-13 00:16:57.000,2017-03-13 00:16:57.000,1800 FAYETTE ST W & GENESEE ST                    ,    Start Moving,-76.1826884542342,43.0521302072571,382
-76.089219124119381,43.055120911424609,265,SNOW & ICE,2017-03-13 00:17:02.000,2017-03-13 00:17:03.000,2934 ERIE BLVD E                                  ,,-76.0892191241194,43.0551209114246,383
-76.183348954441257,43.052030907213286,285,SNOW & ICE,2017-03-13 00:17:08.000,2017-03-13 00:17:08.000,1701-05 FAYETTE ST W & HAMILTON S                 ,,-76.1833489544413,43.0520309072133,384
-76.172305649216838,43.029236903452478,283,SNOW & ICE,2017-03-13 00:17:12.000,2017-03-13 00:17:12.000,326-28 ROBERTS AVE & GORDON AVE                   ,    Start Moving,-76.1723056492168,43.0292369034525,385
-76.183175254365466,43.051761207170465,285,SNOW & ICE,2017-03-13 00:17:15.000,2017-03-13 00:17:15.000,1701-05 FAYETTE ST W & HAMILTON S                 ,    Plow Down,-76.1831752543655,43.0517612071705,386
-76.150445244879791,43.067489611328263,178,SNOW & ICE,2017-03-13 00:17:19.000,2017-03-13 00:17:19.000,609 POND ST & POND LN                             ,,-76.1504452448798,43.0674896113283,387
-76.112032932466335,43.068224412950308,208,SNOW & ICE,2017-03-13 00:17:19.000,2017-03-13 00:17:19.000,2400-10 JAMES ST & STAFFORD AVE                   ,,-76.1120329324663,43.0682244129503,388
-76.110595431081947,43.055465710661736,267,SNOW & ICE,2017-03-13 00:17:19.000,2017-03-13 00:17:19.000,1245 CANAL ST SYRACUSE 13210                      ,    Stop Moving,-76.1105954310819,43.0554657106617,389
-76.135545938837751,43.050726108825522,210,SNOW & ICE,2017-03-13 00:17:24.000,2017-03-13 00:17:25.000,1021 ERIE BLVD E TO CANAL ST                      ,,-76.1355459388378,43.0507261088255,390
-76.139273441798352,43.075039213147527,216,SNOW & ICE,2017-03-13 00:17:24.000,2017-03-13 00:17:24.000,501 WADSWORTH ST & HAROLD ST                      ,    Spreader Off,-76.1392734417984,43.0750392131475,391
-76.139269441808565,43.075198713176981,216,SNOW & ICE,2017-03-13 00:17:30.000,2017-03-13 00:17:30.000,509 WADSWORTH ST                                  ,    Stop Moving,-76.1392694418086,43.075198713177,392
-76.170507748635742,43.029265603527399,283,SNOW & ICE,2017-03-13 00:17:35.000,2017-03-13 00:17:35.000,326 HUBBELL AVE & GORDON AVE                      ,    Stop Moving,-76.1705077486357,43.0292656035274,393
-76.181682153770566,43.050227906946688,285,SNOW & ICE,2017-03-13 00:17:39.000,2017-03-13 00:17:39.000,201 SCHUYLER ST & FAYETTE ST                      ,    Plow Up,-76.1816821537706,43.0502279069467,394
-76.17040724860108,43.029236603525931,283,SNOW & ICE,2017-03-13 00:17:40.000,2017-03-13 00:17:40.000,326 HUBBELL AVE & GORDON AVE                      ,    Plow Down,-76.1704072486011,43.0292366035259,395
-76.165481746370759,43.020442902099916,263,SNOW & ICE,2017-03-13 00:17:42.000,2017-03-13 00:17:42.000,361 HILLVIEW AVE & SUMMIT AVE                     ,    Spreader Off,-76.1654817463708,43.0204429020999,396
-76.139290241830764,43.075413113215554,216,SNOW & ICE,2017-03-13 00:17:45.000,2017-03-13 00:17:45.000,517-19 WADSWORTH ST                               ,    Start Moving,-76.1392902418308,43.0754131132156,397
-76.111343731322194,43.055428910626034,179,SNOW & ICE,2017-03-13 00:17:48.000,2017-03-13 00:17:49.000,1820 EB I 690 SYRACUSE 13210                      ,,-76.1113437313222,43.055428910626,398
-76.170332448548734,43.028846903457222,283,SNOW & ICE,2017-03-13 00:17:48.000,2017-03-13 00:17:48.000,101-03 GORDON AVE & HUBBELL AVE                   ,    Start Moving,-76.1703324485487,43.0288469034572,399
-76.165475246337692,43.020012202020958,263,SNOW & ICE,2017-03-13 00:17:51.000,2017-03-13 00:17:51.000,300 GLENWOOD AVE & SUMMIT AVE                     ,    Stop Moving,-76.1654752463377,43.020012202021,400
-76.181352453627127,43.049722606866631,285,SNOW & ICE,2017-03-13 00:17:51.000,2017-03-13 00:17:52.000,200-06 ULSTER ST & WILBUR AVE N                   ,,-76.1813524536271,43.0497226068666,401
-76.114748932327089,43.054035910238369,286,SNOW & ICE,2017-03-13 00:17:51.000,2017-03-13 00:17:52.000,1212 CANAL ST                                     ,,-76.1147489323271,43.0540359102384,402
-76.139327741867262,43.075750613276071,216,SNOW & ICE,2017-03-13 00:17:53.000,2017-03-13 00:17:53.000,601 WADSWORTH ST & BERKSHIRE                      ,    Spreader On,-76.1393277418673,43.0757506132761,403
-76.181457453657856,43.049676206854045,285,SNOW & ICE,2017-03-13 00:17:54.000,2017-03-13 00:17:55.000,200-06 ULSTER ST & WILBUR AVE N                   ,    Spreader On,-76.1814574536579,43.049676206854,404
-76.152075245257294,43.065388610879232,178,SNOW & ICE,2017-03-13 00:17:57.000,2017-03-13 00:17:57.000,401 POND ST & STEUBEN ST                          ,,-76.1520752452573,43.0653886108792,405
-76.110478231043814,43.055464210665981,267,SNOW & ICE,2017-03-13 00:17:57.000,2017-03-13 00:17:57.000,1200 CANAL ST                                     ,    Start Moving,-76.1104782310438,43.055464210666,406
-76.08365162229191,43.054837111587517,265,SNOW & ICE,2017-03-13 00:18:02.000,2017-03-13 00:18:03.000,3062 ERIE BLVD E TO HEADSON DR                    ,,-76.0836516222919,43.0548371115875,407
-76.170303648483042,43.028063703314331,283,SNOW & ICE,2017-03-13 00:18:03.000,2017-03-13 00:18:03.000,430-32 HUBBELL AVE & CROSSETT ST                  ,    Stop Moving,-76.170303648483,43.0280637033143,408
-76.083310422184354,43.054881711608907,265,SNOW & ICE,2017-03-13 00:18:07.000,2017-03-13 00:18:08.000,3062 ERIE BLVD E TO HEADSON DR                    ,    Plow Up,-76.0833104221844,43.0548817116089,409
-76.16551294634462,43.019938602005972,263,SNOW & ICE,2017-03-13 00:18:07.000,2017-03-13 00:18:07.000,300 GLENWOOD AVE & SUMMIT AVE                     ,    Start Moving,-76.1655129463446,43.019938602006,410
-76.140182942146893,43.075779413248227,216,SNOW & ICE,2017-03-13 00:18:07.000,2017-03-13 00:18:07.000,163 BERKSHIRE AVE                                 ,,-76.1401829421469,43.0757794132482,411
-76.115409932558549,43.054271410256085,286,SNOW & ICE,2017-03-13 00:18:08.000,2017-03-13 00:18:09.000,338 PEAT ST & CANAL ST                            ,    Stop Moving,-76.1154099325585,43.0542714102561,412
-76.170383648503758,43.027991103297879,283,SNOW & ICE,2017-03-13 00:18:08.000,2017-03-13 00:18:08.000,430-32 HUBBELL AVE & CROSSETT ST                  ,    Plow Up,-76.1703836485038,43.0279911032979,413
-76.110228730938729,43.055128710613985,267,SNOW & ICE,2017-03-13 00:18:10.000,2017-03-13 00:18:10.000,1200 CANAL ST                                     ,    Stop Moving,-76.1102287309387,43.055128710614,414
-76.170605448574889,43.027980103287284,283,SNOW & ICE,2017-03-13 00:18:12.000,2017-03-13 00:18:12.000,430-32 HUBBELL AVE & CROSSETT ST                  ,    Spreader Off,-76.1706054485749,43.0279801032873,415
-76.170841948650235,43.027961103274635,283,SNOW & ICE,2017-03-13 00:18:15.000,2017-03-13 00:18:15.000,408 CROSSETT ST                                   ,    Start Moving,-76.1708419486502,43.0279611032746,416
-76.115552132590707,43.054077110214891,286,SNOW & ICE,2017-03-13 00:18:18.000,2017-03-13 00:18:18.000,338 PEAT ST & CANAL ST                            ,,-76.1155521325907,43.0540771102149,417
-76.112052432475608,43.068265612957163,208,SNOW & ICE,2017-03-13 00:18:19.000,2017-03-13 00:18:19.000,2400-10 JAMES ST & STAFFORD AVE                   ,,-76.1120524324756,43.0682656129572,418
-76.110628631060308,43.05501461057758,267,SNOW & ICE,2017-03-13 00:18:20.000,2017-03-13 00:18:20.000,1243 CANAL ST SYRACUSE 13210                      ,    Start Moving,-76.1106286310603,43.0550146105776,419
-76.1155469325805,43.053958410193268,286,SNOW & ICE,2017-03-13 00:18:20.000,2017-03-13 00:18:21.000,334 PEAT ST                                       ,    Start Moving,-76.1155469325805,43.0539584101933,420
-76.082849422050813,43.05510541166781,265,SNOW & ICE,2017-03-13 00:18:21.000,2017-03-13 00:18:21.000,3068 ERIE BLVD E & THOMPSON RD                    ,,-76.0828494220508,43.0551054116678,421
-76.166626646708991,43.019982901971005,263,SNOW & ICE,2017-03-13 00:18:23.000,2017-03-13 00:18:23.000,324 GLENWOOD AVE & ARLINGTON                      ,,-76.166626646709,43.019982901971,422
-76.143565941448216,43.050839408535936,210,SNOW & ICE,2017-03-13 00:18:23.000,2017-03-13 00:18:24.000,615 ERIE BLVD E SYRACUSE 13202                    ,    Stop Moving,-76.1435659414482,43.0508394085359,423
-76.16666994672515,43.020011901974648,263,SNOW & ICE,2017-03-13 00:18:24.000,2017-03-13 00:18:24.000,324 GLENWOOD AVE & ARLINGTON                      ,    Spreader On,-76.1666699467252,43.0200119019746,424
-76.171567648876461,43.027833403223028,283,SNOW & ICE,2017-03-13 00:18:26.000,2017-03-13 00:18:26.000,428 CROSSETT ST & ROBERTS AVE                     ,,-76.1715676488765,43.027833403223,425
-76.083013922121424,43.055345211705564,265,SNOW & ICE,2017-03-13 00:18:27.000,2017-03-13 00:18:28.000,3068 ERIE BLVD E & THOMPSON RD                    ,    Stop Moving,-76.0830139221214,43.0553452117056,426
-76.083019222123653,43.055352611706688,265,SNOW & ICE,2017-03-13 00:18:28.000,2017-03-13 00:18:29.000,3068 ERIE BLVD E & THOMPSON RD                    ,    Spreader Off,-76.0830192221237,43.0553526117067,427
-76.144191641654842,43.050889608520905,210,SNOW & ICE,2017-03-13 00:18:34.000,2017-03-13 00:18:35.000,8516 NB I 81 SYRACUSE 13202                       ,    Start Moving,-76.1441916416548,43.0508896085209,428
-76.155201646359984,43.066611610982712,178,SNOW & ICE,2017-03-13 00:18:36.000,2017-03-13 00:18:36.000,414 KIRKPATRICK ST & STEUBEN                      ,    Stop Moving,-76.15520164636,43.0666116109827,429
-76.184553254579029,43.048522906522095,285,SNOW & ICE,2017-03-13 00:18:38.000,2017-03-13 00:18:38.000,201 EMERSON AVE & ULSTER ST                       ,    Spreader Off,-76.184553254579,43.0485229065221,430
-76.155211946370443,43.066710411000464,178,SNOW & ICE,2017-03-13 00:18:41.000,2017-03-13 00:18:41.000,419 KIRKPATRICK ST                                ,,-76.1552119463704,43.0667104110005,431
-76.155029146327038,43.066931411048124,178,SNOW & ICE,2017-03-13 00:18:47.000,2017-03-13 00:18:47.000,423 KIRKPATRICK ST & PARK ST                      ,    Start Moving,-76.155029146327,43.0669314110481,432
-76.111324631316108,43.055431210627212,179,SNOW & ICE,2017-03-13 00:18:48.000,2017-03-13 00:18:49.000,1820 EB I 690 SYRACUSE 13210                      ,,-76.1113246313161,43.0554312106272,433
-76.11518143228264,43.0514656097493,286,SNOW & ICE,2017-03-13 00:18:50.000,2017-03-13 00:18:51.000,1915 ERIE BLVD E & PEAT ST & K                    ,    Stop Moving,-76.1151814322826,43.0514656097493,434
-76.142598942929283,43.075755613150271,216,SNOW & ICE,2017-03-13 00:18:50.000,2017-03-13 00:18:50.000,1802 BUTTERNUT ST & BERKSHIRE                     ,,-76.1425989429293,43.0757556131503,435
-76.15491614630217,43.067094911082528,178,SNOW & ICE,2017-03-13 00:18:51.000,2017-03-13 00:18:51.000,423 KIRKPATRICK ST & PARK ST                      ,    Stop Moving,-76.1549161463022,43.0670949110825,436
-76.142645442955697,43.075912413177264,216,SNOW & ICE,2017-03-13 00:18:55.000,2017-03-13 00:18:55.000,1804 BUTTERNUT ST                                 ,    Spreader Off,-76.1426454429557,43.0759124131773,437
-76.186418455131601,43.047795406316112,285,SNOW & ICE,2017-03-13 00:19:01.000,2017-03-13 00:19:02.000,428 ULSTER ST & MILTON AVE                        ,    Spreader On,-76.1864184551316,43.0477954063161,438
-76.154581746226967,43.067556711180281,178,SNOW & ICE,2017-03-13 00:19:03.000,2017-03-13 00:19:03.000,1300 PARK ST & KIRKPATRICK ST                     ,    Start Moving,-76.154581746227,43.0675567111803,439
-76.115207932284235,43.051368409730401,286,SNOW & ICE,2017-03-13 00:19:03.000,2017-03-13 00:19:04.000,1915 ERIE BLVD E & PEAT ST & K                    ,    Start Moving,-76.1152079322842,43.0513684097304,440
-76.142681943007943,43.076473113278794,216,SNOW & ICE,2017-03-13 00:19:10.000,2017-03-13 00:19:10.000,1828 BUTTERNUT ST & BRIGGS ST                     ,    Spreader On,-76.1426819430079,43.0764731132788,441
-76.166892946985186,43.022621702445882,263,SNOW & ICE,2017-03-13 00:19:11.000,2017-03-13 00:19:11.000,120 ARLINGTON AVE & COLVIN ST                     ,    Stop Moving,-76.1668929469852,43.0226217024459,442
-76.187468455442698,43.0473861062002,285,SNOW & ICE,2017-03-13 00:19:16.000,2017-03-13 00:19:16.000,514 ULSTER ST                                     ,    Plow Down,-76.1874684554427,43.0473861062002,443
-76.149887243548406,43.051521708416537,210,SNOW & ICE,2017-03-13 00:19:17.000,2017-03-13 00:19:17.000,225 JAMES ST                                      ,    Stop Moving,-76.1498872435484,43.0515217084165,444
-76.11543913256827,43.054275110255645,267,SNOW & ICE,2017-03-13 00:19:19.000,2017-03-13 00:19:19.000,338 PEAT ST & CANAL ST                            ,    Stop Moving,-76.1154391325683,43.0542751102556,445
-76.112083632488748,43.068307912963704,208,SNOW & ICE,2017-03-13 00:19:19.000,2017-03-13 00:19:19.000,2400-10 JAMES ST & STAFFORD AVE                   ,,-76.1120836324887,43.0683079129637,446
-76.16691964702396,43.023040402521829,263,SNOW & ICE,2017-03-13 00:19:23.000,2017-03-13 00:19:23.000,116 ARLINGTON AVE                                 ,    Spreader Off,-76.166919647024,43.0230404025218,447
-76.166924947030864,43.023112102534824,263,SNOW & ICE,2017-03-13 00:19:24.000,2017-03-13 00:19:24.000,116 ARLINGTON AVE                                 ,    Start Moving,-76.1669249470309,43.0231121025348,448
-76.169011447726405,43.023373202502029,283,SNOW & ICE,2017-03-13 00:19:26.000,2017-03-13 00:19:26.000,100 STRATHMORE DR                                 ,,-76.1690114477264,43.023373202502,449
-76.141770942717486,43.076545413327359,216,SNOW & ICE,2017-03-13 00:19:27.000,2017-03-13 00:19:27.000,121 BRIGGS ST                                     ,    Stop Moving,-76.1417709427175,43.0765454133274,450
-76.083036922131427,43.055380611711151,265,SNOW & ICE,2017-03-13 00:19:28.000,2017-03-13 00:19:29.000,3068 ERIE BLVD E & THOMPSON RD                    ,,-76.0830369221314,43.0553806117112,451
-76.141762142714626,43.076545413327707,216,SNOW & ICE,2017-03-13 00:19:28.000,2017-03-13 00:19:28.000,121 BRIGGS ST                                     ,    Spreader Off,-76.1417621427146,43.0765454133277,452
-76.115551932572686,43.053827210168976,267,SNOW & ICE,2017-03-13 00:19:32.000,2017-03-13 00:19:32.000,330 PEAT ST                                       ,    Start Moving,-76.1155519325727,43.053827210169,453
-76.189011255901136,43.046803106033238,285,SNOW & ICE,2017-03-13 00:19:38.000,2017-03-13 00:19:38.000,604 ULSTER ST                                     ,    Plow Up,-76.1890112559011,43.0468031060332,454
-76.169473647832547,43.022765202372362,283,SNOW & ICE,2017-03-13 00:19:40.000,2017-03-13 00:19:40.000,104 STRATHMORE DR                                 ,,-76.1694736478325,43.0227652023724,455
-76.150043743601756,43.051557708417043,210,SNOW & ICE,2017-03-13 00:19:43.000,2017-03-13 00:19:44.000,225 JAMES ST                                      ,    Start Moving,-76.1500437436018,43.051557708417,456
-76.166893147075825,43.023880702677374,263,SNOW & ICE,2017-03-13 00:19:45.000,2017-03-13 00:19:45.000,101 ARLINGTON AVE                                 ,,-76.1668931470758,43.0238807026774,457
-76.111333731319107,43.055431410626888,179,SNOW & ICE,2017-03-13 00:19:48.000,2017-03-13 00:19:49.000,1820 EB I 690 SYRACUSE 13210                      ,,-76.1113337313191,43.0554314106269,458
-76.08307962215072,43.055456111723373,265,SNOW & ICE,2017-03-13 00:19:51.000,2017-03-13 00:19:52.000,3068 ERIE BLVD E & THOMPSON RD                    ,    Start Moving,-76.0830796221507,43.0554561117234,459
-76.150522243746039,43.051405108370481,210,SNOW & ICE,2017-03-13 00:19:53.000,2017-03-13 00:19:54.000,201-19 JAMES ST & WARREN ST N &                   ,    Stop Moving,-76.150522243746,43.0514051083705,460
-76.170632948204471,43.022708202316942,283,SNOW & ICE,2017-03-13 00:19:55.000,2017-03-13 00:19:55.000,265 ROBINEAU RD & STRATHMORE                      ,    Spreader On,-76.1706329482045,43.0227082023169,461
-76.19040515631589,43.046284105883821,285,SNOW & ICE,2017-03-13 00:19:55.000,2017-03-13 00:19:55.000,620 ULSTER ST & AVERY AVE                         ,    Plow Down,-76.1904051563159,43.0462841058838,462
-76.142428142928296,43.076511113295609,216,SNOW & ICE,2017-03-13 00:19:57.000,2017-03-13 00:19:57.000,1828 BUTTERNUT ST & BRIGGS ST                     ,    Start Moving,-76.1424281429283,43.0765111132956,463
-76.142532642961541,43.076501613289807,216,SNOW & ICE,2017-03-13 00:20:00.000,2017-03-13 00:20:00.000,1828 BUTTERNUT ST & BRIGGS ST                     ,    Stop Moving,-76.1425326429615,43.0765016132898,464
-76.083520922307883,43.055650111742004,265,SNOW & ICE,2017-03-13 00:20:00.000,2017-03-13 00:20:01.000,3065 ERIE BLVD E & THOMPSON RD                    ,    Spreader On,-76.0835209223079,43.055650111742,465
-76.170781248262912,43.022851702337569,283,SNOW & ICE,2017-03-13 00:20:01.000,2017-03-13 00:20:01.000,290 ROBINEAU RD & TWIN HLS                        ,,-76.1707812482629,43.0228517023376,466
-76.152479645750375,43.070407911785402,178,SNOW & ICE,2017-03-13 00:20:03.000,2017-03-13 00:20:03.000,715 KIRKPATRICK ST                                ,,-76.1524796457504,43.0704079117854,467
-76.119872133635624,43.049112709135464,286,SNOW & ICE,2017-03-13 00:20:03.000,2017-03-13 00:20:04.000,1732 ERIE BLVD E & WESTCOTT ST                    ,,-76.1198721336356,43.0491127091355,468
-76.152354745720146,43.070551211816564,178,SNOW & ICE,2017-03-13 00:20:08.000,2017-03-13 00:20:08.000,717 KIRKPATRICK ST & FIRST NO                     ,    Stop Moving,-76.1523547457201,43.0705512118166,469
-76.085295722881028,43.055609211665917,265,SNOW & ICE,2017-03-13 00:20:14.000,2017-03-13 00:20:15.000,3020-40 ERIE BLVD E & HEADSON DR                  ,    Spreader Off,-76.085295722881,43.0556092116659,470
-76.142556142968203,43.076488213286453,216,SNOW & ICE,2017-03-13 00:20:14.000,2017-03-13 00:20:14.000,1828 BUTTERNUT ST & BRIGGS ST                     ,    Spreader On,-76.1425561429682,43.0764882132865,471
-76.192152756835043,43.045622205694407,285,SNOW & ICE,2017-03-13 00:20:16.000,2017-03-13 00:20:16.000,720 ULSTER ST & MYRTLE AVE                        ,    Spreader Off,-76.192152756835,43.0456222056944,472
-76.142459442937849,43.076502613292838,216,SNOW & ICE,2017-03-13 00:20:19.000,2017-03-13 00:20:19.000,1828 BUTTERNUT ST & BRIGGS ST                     ,    Start Moving,-76.1424594429378,43.0765026132928,473
-76.112109432496851,43.068304112962004,208,SNOW & ICE,2017-03-13 00:20:19.000,2017-03-13 00:20:19.000,2400-10 JAMES ST & STAFFORD AVE                   ,,-76.1121094324969,43.068304112962,474
-76.192491956947265,43.04565260568684,285,SNOW & ICE,2017-03-13 00:20:23.000,2017-03-13 00:20:24.000,720 ULSTER ST & MYRTLE AVE                        ,,-76.1924919569473,43.0456526056868,475
-76.164797146410052,43.024076202794504,263,SNOW & ICE,2017-03-13 00:20:23.000,2017-03-13 00:20:23.000,311 PARKWAY DR                                    ,    Spreader On,-76.1647971464101,43.0240762027945,476
-76.152020445645334,43.07101821191528,178,SNOW & ICE,2017-03-13 00:20:23.000,2017-03-13 00:20:23.000,1000 FIRST NORTH ST & KIRKPATR                    ,    Start Moving,-76.1520204456453,43.0710182119153,477
-76.192520756959681,43.045695405693607,285,SNOW & ICE,2017-03-13 00:20:25.000,2017-03-13 00:20:25.000,720 ULSTER ST & MYRTLE AVE                        ,    Plow Up,-76.1925207569597,43.0456954056936,478
-76.150654243786065,43.051366408358277,210,SNOW & ICE,2017-03-13 00:20:26.000,2017-03-13 00:20:27.000,201-19 JAMES ST & WARREN ST N &                   ,    Start Moving,-76.1506542437861,43.0513664083583,479
-76.164686746377967,43.024127902808274,263,SNOW & ICE,2017-03-13 00:20:27.000,2017-03-13 00:20:27.000,311 PARKWAY DR                                    ,,-76.164686746378,43.0241279028083,480
-76.118760633363976,43.050351109406037,267,SNOW & ICE,2017-03-13 00:20:32.000,2017-03-13 00:20:32.000,1801 ERIE BLVD E & DEVINE ST &                    ,,-76.118760633364,43.050351109406,481
-76.151558945555507,43.071849612085835,178,SNOW & ICE,2017-03-13 00:20:37.000,2017-03-13 00:20:37.000,819 KIRKPATRICK ST & SECOND N                     ,,-76.1515589455555,43.0718496120858,482
-76.193130657235415,43.046775405868352,285,SNOW & ICE,2017-03-13 00:20:46.000,2017-03-13 00:20:47.000,724 SCHUYLER ST & MYRTLE AVE                      ,,-76.1931306572354,43.0467754058684,483
-76.11134643132435,43.055447110629281,179,SNOW & ICE,2017-03-13 00:20:48.000,2017-03-13 00:20:49.000,1820 EB I 690 SYRACUSE 13210                      ,,-76.1113464313243,43.0554471106293,484
-76.119698733333138,43.045688108512742,286,SNOW & ICE,2017-03-13 00:20:55.000,2017-03-13 00:20:56.000,1939 GENESEE ST E & WESTCOTT S                    ,    Stop Moving,-76.1196987333331,43.0456881085127,485
-76.152854446022445,43.072495112154172,178,SNOW & ICE,2017-03-13 00:20:56.000,2017-03-13 00:20:56.000,1000 DANFORTH ST & SECOND NORT                    ,    Stop Moving,-76.1528544460224,43.0724951121542,486
-76.171262148629751,43.025782602857824,283,SNOW & ICE,2017-03-13 00:21:01.000,2017-03-13 00:21:01.000,185 ROBINEAU RD                                   ,,-76.1712621486298,43.0257826028578,487
-76.152910246050382,43.072631412177039,178,SNOW & ICE,2017-03-13 00:21:02.000,2017-03-13 00:21:02.000,1001 DANFORTH ST & SECOND NORT                    ,,-76.1529102460504,43.072631412177,488
-76.119656633281664,43.045162208417707,286,SNOW & ICE,2017-03-13 00:21:07.000,2017-03-13 00:21:08.000,2004 GENESEE ST E & WESTCOTT S                    ,    Start Moving,-76.1196566332817,43.0451622084177,489
-76.152699146002533,43.072917712237782,178,SNOW & ICE,2017-03-13 00:21:08.000,2017-03-13 00:21:08.000,1002-04 DANFORTH ST                               ,    Start Moving,-76.1526991460025,43.0729177122378,490
-76.154930645215771,43.051952208300271,210,SNOW & ICE,2017-03-13 00:21:12.000,2017-03-13 00:21:13.000,260-64 GENESEE ST W & FRANKLIN S                  ,    Stop Moving,-76.1549306452158,43.0519522083003,491
-76.09461172585732,43.054949211184699,265,SNOW & ICE,2017-03-13 00:21:14.000,2017-03-13 00:21:15.000,2775 ERIE BLVD E                                  ,,-76.0946117258573,43.0549492111847,492
-76.139487941985522,43.076670213438724,216,SNOW & ICE,2017-03-13 00:21:18.000,2017-03-13 00:21:18.000,183 BRIGGS ST & WADSWORTH ST                      ,    Stop Moving,-76.1394879419855,43.0766702134387,493
-76.112119132502201,43.06833461296722,208,SNOW & ICE,2017-03-13 00:21:19.000,2017-03-13 00:21:19.000,2400-10 JAMES ST & STAFFORD AVE                   ,,-76.1121191325022,43.0683346129672,494
-76.152430745953779,43.073449712345884,178,SNOW & ICE,2017-03-13 00:21:19.000,2017-03-13 00:21:19.000,1019 DANFORTH ST & COURT TERR                     ,,-76.1524307459538,43.0734497123459,495
-76.139456941977087,43.076692613444067,216,SNOW & ICE,2017-03-13 00:21:21.000,2017-03-13 00:21:21.000,183 BRIGGS ST & WADSWORTH ST                      ,    Spreader Off,-76.1394569419771,43.0766926134441,496
-76.096066426317165,43.054778111097036,265,SNOW & ICE,2017-03-13 00:21:23.000,2017-03-13 00:21:23.000,2743 ERIE BLVD E                                  ,    Spreader On,-76.0960664263172,43.054778111097,497
